name,address,phone,email,website,hours,services,brands,languages,payment,rating,reviews,additional,clean_address,latitude,longitude
Garage am Atelier SARLS,1 Rue de la Sire L-6484 Echternach lechternach,,,,,,,,,,,,"1 Rue de la Sire L-6484 Echternach lechternach, Luxembourg",49.811772700000006,6.423581440596147
68 Rue de IAlzette L-7305 Mullendorf Mélleref,68 Rue de IAlzette L-7305 Mullendorf Mélleref,,,,,,,,,,,,"68 Rue de IAlzette L-7305 Mullendorf Mélleref, Luxembourg",49.67369185,6.127289644353726
18 Rue Francois Dostert L-7397 Hunsdorf Hénsdref,18 Rue Francois Dostert L-7397 Hunsdorf Hénsdref,,,,,,,,,,,,"18 Rue Francois Dostert L-7397 Hunsdorf Hénsdref, Luxembourg",49.69625155,6.1312870815266205
5 Rue de Lille L-4214 Esch-sur-Alzette Esch-Uelzecht,5 Rue de Lille L-4214 Esch-sur-Alzette Esch-Uelzecht,,,,,,,,,,,,"5 Rue de Lille L-4214 Esch-sur-Alzette Esch-Uelzecht, Luxembourg",49.5072249,5.984018073726633
7 Zone Industrielle L-9166 Mertzig Mderzeg,7 Zone Industrielle L-9166 Mertzig Mderzeg,,,,,,,,,,,,"7 Zone Industrielle L-9166 Mertzig Mderzeg, Luxembourg",49.837034,6.012790003490087
AD Rue Pletzer L-8080 Bertrange Bartreng,AD Rue Pletzer L-8080 Bertrange Bartreng,,,,,,,,,,,,"AD Rue Pletzer L-8080 Bertrange Bartreng, Luxembourg",49.6032531,6.0741546
595G Rue de Neudorf L-2220 Luxembourg Létzebuerg,595G Rue de Neudorf L-2220 Luxembourg Létzebuerg,,,,,,,,,,,,595G Rue de Neudorf L-2220 Luxembourg Létzebuerg,49.6195455,6.1575354
270 Route dArlon L-8010 Strassen Stroossen,270 Route dArlon L-8010 Strassen Stroossen,,,,,Europe Car Center SARLS,,,,,,,"270 Route dArlon L-8010 Strassen Stroossen, Luxembourg",49.62264075,6.055723005236506
21 Rue de la Continentale L-4917 Bascharage Nidderkderjeng,21 Rue de la Continentale L-4917 Bascharage Nidderkderjeng,,,,,,,,,,,,"21 Rue de la Continentale L-4917 Bascharage Nidderkderjeng, Luxembourg",49.5594741,5.925185697556387
177 Rue de Luxembourg L-8077 Bertrange Bartreng,177 Rue de Luxembourg L-8077 Bertrange Bartreng,,,,,,,,,552.0,,,177 Rue de Luxembourg L-8077 Bertrange Bartreng,49.607713200000006,6.070558770146898
36 Duarrefstrooss L-9944 Beiler Beeler,36 Duarrefstrooss L-9944 Beiler Beeler,,,,,,,,,,,,"36 Duarrefstrooss L-9944 Beiler Beeler, Luxembourg",50.16493625,6.089654892652195
84 Avenue de Luxembourg L-4940 Bascharage Nidderkderjeng,84 Avenue de Luxembourg L-4940 Bascharage Nidderkderjeng,,,,,Garage Theves du Sud Sarl,,,,,,,84 Avenue de Luxembourg L-4940 Bascharage Nidderkderjeng,49.5697648,5.9157051
7 Zone Industrielle Hahneboesch L-4562 Niederkorn Nidderkuer,7 Zone Industrielle Hahneboesch L-4562 Niederkorn Nidderkuer,,,,,,,,,,,,"7 Zone Industrielle Hahneboesch L-4562 Niederkorn Nidderkuer, Luxembourg",49.54436235,5.8993584125
68 Rue de IHépital L-4581 Differdange Déifferdang,68 Rue de IHépital L-4581 Differdange Déifferdang,1 aco 26 27 22,,,,ite sector  Servicesatthe specialists  Trading,,,,,,"ch by activity Duty Pharmacies Digital Marketing Agency ch by location Hospitals on duty Marketing solutions for companies Jest a quote Route information Website creation tical guide Horoscope Ecommerce website Postcode Finder Business Directory Registration ctly access an activity on Luxembourg sation, training and employment e Garage, transport and mobility  Hotel,Restaurant, Tavern e In ge Editus.lu provides you with all the results for Garage. Refine your search Luxembourg, Esch-sur-Alzette, Bertrange, Bodywork, ng for address, telephone number, fax number... Call your contacts free of charge and locate them on a map. Garage Zimmer  Neu Sarl","68 Rue de IHépital L-4581 Differdange Déifferdang, Luxembourg",49.5235053,5.8796762
8 Rue de Mersch L-7410 Angelsberg Aangelsbierg,8 Rue de Mersch L-7410 Angelsberg Aangelsbierg,,,,,Auto Tala - Ichkontana Said,,,,,,,"8 Rue de Mersch L-7410 Angelsberg Aangelsbierg, Luxembourg",49.76140715,6.159709927929614
3 Route de Beaufort L-6360 Grundhof Grondhaff,3 Route de Beaufort L-6360 Grundhof Grondhaff,,,,,"SCHOOS Gary, Létz Cut Plasma Cutting",,,,,,,"3 Route de Beaufort L-6360 Grundhof Grondhaff, Luxembourg",49.8356775,6.329236
5 Rue dArlon L-9155 Grosbous Groussbus,5 Rue dArlon L-9155 Grosbous Groussbus,,,,,,,,,,,,"5 Rue dArlon L-9155 Grosbous Groussbus, Luxembourg",,
9 Rue Robert Stumper L-2557 Luxembourg Létzebuerg,9 Rue Robert Stumper L-2557 Luxembourg Létzebuerg,,,,,Garage Theves du Sud Sarl,,,,,,,9 Rue Robert Stumper L-2557 Luxembourg Létzebuerg,49.581532800000005,6.118466923440355
12a Chemin des Rochers L-6310 Beaufort Beefort,12a Chemin des Rochers L-6310 Beaufort Beefort,,,,,Garage am Atelier SARLS,,,,,,,"12a Chemin des Rochers L-6310 Beaufort Beefort, Luxembourg",49.83609465,6.288313912995452
13 Allee John W. Leonard L-7526 Mersch Miersch,13 Allee John W. Leonard L-7526 Mersch Miersch,,,,,Fun Garage Siége social,,,,,,,"13 Allee John W. Leonard L-7526 Mersch Miersch, Luxembourg",49.7572242,6.102882
100 Rue Principale L-5480 Wormeldange Wormer,100 Rue Principale L-5480 Wormeldange Wormer,,,,,Losch Business Center Kirchberg,,,,,,,"100 Rue Principale L-5480 Wormeldange Wormer, Luxembourg",49.6093128,6.404280146052642
5 Rue des Joncs L-1818 Howald Houwald,5 Rue des Joncs L-1818 Howald Houwald,,,,,,,,,,,,"5 Rue des Joncs L-1818 Howald Houwald, Luxembourg",49.5765597,6.131622
76 Rue Principale L-8383 Koerich Kderch,76 Rue Principale L-8383 Koerich Kderch,,,,,KRACHAN Michael - Motorradtechnik,,,,7.0,,,"76 Rue Principale L-8383 Koerich Kderch, Luxembourg",49.6703673,5.9460086
L-7737 Colmar-Berg Colmer-Bierg,L-7737 Colmar-Berg Colmer-Bierg,,,,,,,,,537.0,,,"L-7737 Colmar-Berg Colmer-Bierg, Luxembourg",49.811143,6.0910235
IIB Op der Héi L-9806 Hosingen Housen,IIB Op der Héi L-9806 Hosingen Housen,,,,,Garage Llorens J.A.R. Motor,,,,,,,"IIB Op der Héi L-9806 Hosingen Housen, Luxembourg",50.0107406,6.0901898
18 Rue Robert Stumper L-2557 Luxembourg Létzebuerg,18 Rue Robert Stumper L-2557 Luxembourg Létzebuerg,,,,,,,,,,,,18 Rue Robert Stumper L-2557 Luxembourg Létzebuerg,49.581221799999994,6.117576778076581
90 Rue Charles Darwin L-1433 Luxembourg Létzebuerg,90 Rue Charles Darwin L-1433 Luxembourg Létzebuerg,,,,,itesector  Servicesatthe specialists  Trading,,,,,,"rch by activity Duty Pharmacies Digital Marketing Agency rch by location Hospitals on duty Marketing solutions for companies uest a quote Route information Website creation tical guide Horoscope Ecommerce website Postcode Finder Business Directory Registration ctly access an activity on Luxembourg cation, training and employment  Garage, transport and mobility  Hotel, Restaurant, Tavern e In ge Editus.lu provides you with all the results for Garage. Refine your search Luxembourg, Esch-sur-Alzette, Bertrange, Bodywork, ng for address, telephone number, fax number... Call your contacts free of charge and locate them on a map. Losch Business Center Kirchberg",90 Rue Charles Darwin L-1433 Luxembourg Létzebuerg,49.585481,6.1228023
2 Rue du Pont L-7245 Bereldange Bareldeng,2 Rue du Pont L-7245 Bereldange Bareldeng,,,,,Media Support Logistics Sarl,,,,,,,"2 Rue du Pont L-7245 Bereldange Bareldeng, Luxembourg",49.6500116,6.129597151260089
2B Ennert Dem Bierg L-5244 Sandweiler Sandweiler,2B Ennert Dem Bierg L-5244 Sandweiler Sandweiler,,,,,,,,,,,,"2B Ennert Dem Bierg L-5244 Sandweiler Sandweiler, Luxembourg",49.6169553,6.2141091
10 Ellerstrooss L-8526 Colpach-Bas Nidderkolpech,10 Ellerstrooss L-8526 Colpach-Bas Nidderkolpech,,,,,AG ACM Mobility Car AA alee te tet AAA... nt ee Fe eat NN a eT a POO OY LC,,,,512.0,,,"10 Ellerstrooss L-8526 Colpach-Bas Nidderkolpech, Luxembourg",49.75792855,5.827126703044401
28 Rue de Steinfort L-8476 Eischen Aischen,28 Rue de Steinfort L-8476 Eischen Aischen,,,,,,,,,,,,"28 Rue de Steinfort L-8476 Eischen Aischen, Luxembourg",49.6817667,5.8792215
23 Zone Industrielle L-8287 Kehlen Kielen,23 Zone Industrielle L-8287 Kehlen Kielen,,,,,,,,,517.0,,,"23 Zone Industrielle L-8287 Kehlen Kielen, Luxembourg",,
2 Porte des Ardennes L-9145 Erpeldange-sur-Stre lerpeldengSauer,2 Porte des Ardennes L-9145 Erpeldange-sur-Stre lerpeldengSauer,,,,,,,,,,,,"2 Porte des Ardennes L-9145 Erpeldange-sur-Stre lerpeldengSauer, Luxembourg",49.86006785,6.111645973311417
2 Rue Geespelt L-3378 Livange Léiweng,2 Rue Geespelt L-3378 Livange Léiweng,,,,,,,,,,,,"2 Rue Geespelt L-3378 Livange Léiweng, Luxembourg",49.5311116,6.1235818
63 Route de Remich L-5330 Moutfort Mutfert,63 Route de Remich L-5330 Moutfort Mutfert,,,,,ite sector  Servicesatthe specialists  Trading,,,,,,"ch by activity Duty Pharmacies Digital Marketing Agency ch by location Hospitals on duty Marketing solutions for companies Jest a quote Route information Website creation tical guide Horoscope Ecommerce website Postcode Finder Business Directory Registration ctly access an activity on Luxembourg sation, training and employment e Garage, transport and mobility  Hotel,Restaurant,Tavern e _ Inc ge Editus.lu provides you with all the results for Garage. Refine your search Luxembourg, Esch-sur-Alzette, Bertrange, Bodywork, ng for address, telephone number, fax number... Call your contacts free of charge and locate them on a map.","63 Route de Remich L-5330 Moutfort Mutfert, Luxembourg",49.589135299999995,6.257482400000004
4 Op de Leemen L-5846 Fentange Fenteng,4 Op de Leemen L-5846 Fentange Fenteng,,,,,Automobiles Vitrages Services Sarl,,,,,,,"4 Op de Leemen L-5846 Fentange Fenteng, Luxembourg",49.5622539,6.1482982
25 Rue des Artisans L-8805 Rambrouch Rammerich,25 Rue des Artisans L-8805 Rambrouch Rammerich,,,,,,,,,,,,"25 Rue des Artisans L-8805 Rambrouch Rammerich, Luxembourg",49.82550035,5.8532969500000025
1 Rue René Moes L-8348 Capellen Kapellen,1 Rue René Moes L-8348 Capellen Kapellen,,,,,,,,,484.0,,,"1 Rue René Moes L-8348 Capellen Kapellen, Luxembourg",49.644677900000005,5.982843436068414
1 Rue Jean Piret L-2350 Luxembourg Létzebuerg,1 Rue Jean Piret L-2350 Luxembourg Létzebuerg,,,,,,,,,,,,1 Rue Jean Piret L-2350 Luxembourg Létzebuerg,49.5841066,6.1162560875449135
50 Rue de Luxembourg L-7540 Rollingen Rolleng,50 Rue de Luxembourg L-7540 Rollingen Rolleng,,,,,CAR Pro Differdange Sarl,,,,,,,50 Rue de Luxembourg L-7540 Rollingen Rolleng,49.7439135,6.112895380609765
82 Rue de Soleuvre L-4670 Differdange Déifferdang,82 Rue de Soleuvre L-4670 Differdange Déifferdang,,,,,AM Classic Cars SARLS,,,,487.0,,,"82 Rue de Soleuvre L-4670 Differdange Déifferdang, Luxembourg",49.52071095,5.905895890992081
2 Schweecherdaulerstrooss L-8551 Noerdange Nderden,2 Schweecherdaulerstrooss L-8551 Noerdange Nderden,,,,,Garage Zimmer  Neu Sarl,,,,488.0,,,"2 Schweecherdaulerstrooss L-8551 Noerdange Nderden, Luxembourg",49.7412285,5.924103296633511
9a Rue de Bergem L-4029 Esch-sur-Alzette Esch-Uelzecht,9a Rue de Bergem L-4029 Esch-sur-Alzette Esch-Uelzecht,,,,,,,,,,,,"9a Rue de Bergem L-4029 Esch-sur-Alzette Esch-Uelzecht, Luxembourg",49.5235322,6.0377532
34 Rue Bourg L-8461 Eischen Aischen,34 Rue Bourg L-8461 Eischen Aischen,,,,,,,,,,,,"34 Rue Bourg L-8461 Eischen Aischen, Luxembourg",49.6828121,5.8733443
259A Rue de Luxembourg L-8077 Bertrange Bartreng,259A Rue de Luxembourg L-8077 Bertrange Bartreng,,,,,,,,,,,,259A Rue de Luxembourg L-8077 Bertrange Bartreng,49.610481,6.0632716
66 Rue de Bourgogne L-1272 Luxembourg Létzebuerg,66 Rue de Bourgogne L-1272 Luxembourg Létzebuerg,,,,,Garage Paul Kellen Sarl,,,,,,,66 Rue de Bourgogne L-1272 Luxembourg Létzebuerg,49.63569885,6.132216200000002
13 Allée John W. Leonard L-7526 Mersch Miersch,13 Allée John W. Leonard L-7526 Mersch Miersch,,,,,Fun Garage Siége social,,,,,,,"13 Allée John W. Leonard L-7526 Mersch Miersch, Luxembourg",49.7572242,6.102882
6 Rue Cyprien Merjai L-2145 Luxembourg Létzebuerg,6 Rue Cyprien Merjai L-2145 Luxembourg Létzebuerg,,,,,,,,,,,,6 Rue Cyprien Merjai L-2145 Luxembourg Létzebuerg,49.643794099999994,6.1301252023157655
4D Rue Pletzer L-8080 Bertrange Bartreng,4D Rue Pletzer L-8080 Bertrange Bartreng,,,,,,,,,468.0,,,"4D Rue Pletzer L-8080 Bertrange Bartreng, Luxembourg",49.60434205,6.072329154540549
68 Avenue de Ia Liberté L-1930 Luxembourg Létzebuerg,68 Avenue de Ia Liberté L-1930 Luxembourg Létzebuerg,,,,,,,,,470.0,,,68 Avenue de Ia Liberté L-1930 Luxembourg Létzebuerg,49.6038025,6.130783
1 Rue du Lavoir L-3358 Leudelange Leideleng,1 Rue du Lavoir L-3358 Leudelange Leideleng,,,,,LUX Auto Concept SARLS,,,,473.0,,,"1 Rue du Lavoir L-3358 Leudelange Leideleng, Luxembourg",49.5673707,6.0645237
85 Rue de Dommeldange L-7222 Walferdange Walfer,85 Rue de Dommeldange L-7222 Walferdange Walfer,,,,,,,,,,,,"85 Rue de Dommeldange L-7222 Walferdange Walfer, Luxembourg",49.652938649999996,6.133937267617849
26 Cité Steen L-9993 Weiswampach Wdiswampech,26 Cité Steen L-9993 Weiswampach Wdiswampech,,,,,,,,,,,,"26 Cité Steen L-9993 Weiswampach Wdiswampech, Luxembourg",50.1370268,6.081200954163947
23 Rue Beaumont L-1219 Luxembourg Létzebuerg,23 Rue Beaumont L-1219 Luxembourg Létzebuerg,,,,,,,,,,,,23 Rue Beaumont L-1219 Luxembourg Létzebuerg,49.61296575,6.128370476733242
"in o 1.0.2501.2403 Copyright  2025 - Editus Luxembourg S.A. - 208, rue de Noertzange L-3670",78 Haaptstrooss L-9806 Hosingen Housen,,,,,,,,,,,,"78 Haaptstrooss L-9806 Hosingen Housen, Luxembourg",50.0199171,6.0921964
80 Rue des Artisans L-1141 Luxembourg Létzebuerg,80 Rue des Artisans L-1141 Luxembourg Létzebuerg,,,,,,Renault Groupe Autosphere  Capellen,,,,,,80 Rue des Artisans L-1141 Luxembourg Létzebuerg,49.5953937,6.1088123
1B Route dArlon L-8310 Cap Kap,1B Route dArlon L-8310 Cap Kap,,,,,,,,,,,,"1B Route dArlon L-8310 Cap Kap, Luxembourg",,
10 Zone Industrielle L-8821 Koetschette Kietscht,10 Zone Industrielle L-8821 Koetschette Kietscht,,,,,,,,,,,,"10 Zone Industrielle L-8821 Koetschette Kietscht, Luxembourg",,
35 Route de Stadtbredimus L-5570 Remich Réimech,35 Route de Stadtbredimus L-5570 Remich Réimech,,,,,Premium Car Concept Sarl,,,,,,,"35 Route de Stadtbredimus L-5570 Remich Réimech, Luxembourg",49.5509223,6.3781264
1D Rue Principale L-5465 Waldbredimus Waldbriedemes,1D Rue Principale L-5465 Waldbredimus Waldbriedemes,,,,,,,,,,,,"1D Rue Principale L-5465 Waldbredimus Waldbriedemes, Luxembourg",49.55763025,6.2955121622127095
18 Um Woeller L-4410 Soleuvre Zolwer,18 Um Woeller L-4410 Soleuvre Zolwer,,,,,,,,,,,,"18 Um Woeller L-4410 Soleuvre Zolwer, Luxembourg",49.5349247,5.939136393597121
1 Rue de Holtz L-8826 Perlé Parel,1 Rue de Holtz L-8826 Perlé Parel,,,,,Jean Ries Sarl et Cie II SCS,,,,,,,"1 Rue de Holtz L-8826 Perlé Parel, Luxembourg",49.809858500000004,5.766632930787878
3 Rue Nicolas Gredt L-1641 Luxembourg Létzebuerg,3 Rue Nicolas Gredt L-1641 Luxembourg Létzebuerg,,,,,,,,,,,,3 Rue Nicolas Gredt L-1641 Luxembourg Létzebuerg,49.58644175,6.10696315541006
80A Rue de Kehlen L-8295 Keispelt Keespelt,80A Rue de Kehlen L-8295 Keispelt Keespelt,,,,,,,,,,,,"80A Rue de Kehlen L-8295 Keispelt Keespelt, Luxembourg",49.6900311,6.0552458
408 Route de Longwy L-4830 Rodange Rodange,408 Route de Longwy L-4830 Rodange Rodange,,,,,Team Car Repairs SA,,,,,,,"408 Route de Longwy L-4830 Rodange Rodange, Luxembourg",49.5511046,5.8434572
L-3841 Schifflange Schéffleng,L-3841 Schifflange Schéffleng,,,,,,,,,,,,"L-3841 Schifflange Schéffleng, Luxembourg",49.5131994,6.0086329762033195
L-3378 Livange Léiweng,L-3378 Livange Léiweng,,,,,,,,,,,,"L-3378 Livange Léiweng, Luxembourg",49.5317138,6.1154882
19 Reimecherwee L-5698 Welfrange Welfreng,19 Reimecherwee L-5698 Welfrange Welfreng,,,,,,,,,,,,"19 Reimecherwee L-5698 Welfrange Welfreng, Luxembourg",49.542110199999996,6.286165217833984
5 Om Knupp L-9991 Weiswampach Wdiswampech,5 Om Knupp L-9991 Weiswampach Wdiswampech,,,,,,,,,457.0,,,"5 Om Knupp L-9991 Weiswampach Wdiswampech, Luxembourg",50.138128449999996,6.082206050000005
11 Rue Kalchesbruck L-1852 Luxembourg Létzebuerg,11 Rue Kalchesbruck L-1852 Luxembourg Létzebuerg,,,,,,,,,,,,11 Rue Kalchesbruck L-1852 Luxembourg Létzebuerg,49.6244483,6.188765418578333
34D6 Rue de la Poste L-8824 Perlé Parel,34D6 Rue de la Poste L-8824 Perlé Parel,,,,,Grand Garage Paul Wengler Siége social,,,,,,,"34D6 Rue de la Poste L-8824 Perlé Parel, Luxembourg",49.8136831,5.7639136
36 Avenue des Alliés L-9012 Ettelbruck Ettelbréck,36 Avenue des Alliés L-9012 Ettelbruck Ettelbréck,,,,,,,,,,,,"36 Avenue des Alliés L-9012 Ettelbruck Ettelbréck, Luxembourg",49.8409234,6.098234
25-D Robert Schuman-Strooss L-5751 Frisange Fréiseng,25-D Robert Schuman-Strooss L-5751 Frisange Fréiseng,,,,,,,,,,,,"25-D Robert Schuman-Strooss L-5751 Frisange Fréiseng, Luxembourg",49.512688749999995,6.190218200000002
3 Zone dactivité Zare llot Ouest L-4384 Ehlerange Eilereng,3 Zone dactivité Zare llot Ouest L-4384 Ehlerange Eilereng,,,,,International Car Trading  Management fur Handler Sarl,,,,,,,"3 Zone dactivité Zare llot Ouest L-4384 Ehlerange Eilereng, Luxembourg",,
58 Um Kécker L-5489 Ehnen Einen,58 Um Kécker L-5489 Ehnen Einen,,,,,,,,,,,,"58 Um Kécker L-5489 Ehnen Einen, Luxembourg",49.6017629,6.392412350000001
98 Rue de Bonnevoie L-1260 Luxembourg Létzebuerg,98 Rue de Bonnevoie L-1260 Luxembourg Létzebuerg,,,,,,,,,,,,98 Rue de Bonnevoie L-1260 Luxembourg Létzebuerg,49.5989024,6.13732935
1 Zone um Woeller L-4410 Sanem Suessem,1 Zone um Woeller L-4410 Sanem Suessem,,,,,,,,,,,,"1 Zone um Woeller L-4410 Sanem Suessem, Luxembourg",49.537789450000005,5.93565229505411
12 Gidllewee L-9749 Fischbach Clervaux Féschbech Clidrref,12 Gidllewee L-9749 Fischbach Clervaux Féschbech Clidrref,,,,,,Garage Citroen,,,,,,"12 Gidllewee L-9749 Fischbach Clervaux Féschbech Clidrref, Luxembourg",,
L-7759 Roost Bissen Roost Bissen,L-7759 Roost Bissen Roost Bissen,,,,,,,,,,,,"L-7759 Roost Bissen Roost Bissen, Luxembourg",49.7868872,6.0960274
64 Duerfstrooss L-9689 Tarchamps Eeschpelt,64 Duerfstrooss L-9689 Tarchamps Eeschpelt,,,,,Duro Lux Automobiles Sarl,,,,,,,"64 Duerfstrooss L-9689 Tarchamps Eeschpelt, Luxembourg",49.9532658,5.8044849722004095
238 Route de Luxembourg L-3515 Dudelange Diddeleng,238 Route de Luxembourg L-3515 Dudelange Diddeleng,,,,,,,,,,,,238 Route de Luxembourg L-3515 Dudelange Diddeleng,49.4956959,6.0863162
9 Schmaenneweeg L-9942 Basbellain Kirchen,9 Schmaenneweeg L-9942 Basbellain Kirchen,,,,,,,,,,,,"9 Schmaenneweeg L-9942 Basbellain Kirchen, Luxembourg",50.144854800000005,5.984132889645368
8 Om Allerburrer Knapp L-9752 Hamiville Heesdref,8 Om Allerburrer Knapp L-9752 Hamiville Heesdref,,,,,"De Mira Gomes Ivo, Rafael",,,,437.0,,,"8 Om Allerburrer Knapp L-9752 Hamiville Heesdref, Luxembourg",50.04320195,5.895031727379807
6 Rue Joseph Leydenbach L-1947 Luxembourg Létzebuerg,6 Rue Joseph Leydenbach L-1947 Luxembourg Létzebuerg,,,,,,,,,,,,6 Rue Joseph Leydenbach L-1947 Luxembourg Létzebuerg,49.629487749999996,6.174847047461295
L-8070 Bertrange Bartreng,L-8070 Bertrange Bartreng,,,,,,,,,,,,"L-8070 Bertrange Bartreng, Luxembourg",49.6106029,6.0501598
4 Rue de IAvenir L-1147 Luxembourg Létzebuerg,4 Rue de IAvenir L-1147 Luxembourg Létzebuerg,,,,,,,,,,,,4 Rue de IAvenir L-1147 Luxembourg Létzebuerg,49.609573,6.132061770290987
120 Z.A.E. Wolser A L-3225 Bettembourg Beetebuerg,120 Z.A.E. Wolser A L-3225 Bettembourg Beetebuerg,,,,,,,,,,,,"120 Z.A.E. Wolser A L-3225 Bettembourg Beetebuerg, Luxembourg",49.5027802,6.0910298
59 Munnereferstrooss L-5750 Frisange Fréiseng,59 Munnereferstrooss L-5750 Frisange Fréiseng,,,,,,,,,,,,"59 Munnereferstrooss L-5750 Frisange Fréiseng, Luxembourg",49.5170484,6.199110211089108
16 Rue Jean-Pierre Thill L-9085 Ettelbruck Ettelbréck,16 Rue Jean-Pierre Thill L-9085 Ettelbruck Ettelbréck,,,,,,,,,,,,"16 Rue Jean-Pierre Thill L-9085 Ettelbruck Ettelbréck, Luxembourg",49.8397423,6.0937192
25 Rue Edmond Reuter L-5326 Contern Conter,25 Rue Edmond Reuter L-5326 Contern Conter,,,,,,,,,,,,"25 Rue Edmond Reuter L-5326 Contern Conter, Luxembourg",49.59413175,6.225206637762905
3-5 Rue dArlon L-8399 Windhof Koerich,3-5 Rue dArlon L-8399 Windhof Koerich,,,,,,,,,,,,"3-5 Rue dArlon L-8399 Windhof Koerich, Luxembourg",49.648280850000006,5.955177525690525
1 Rue Fontebierg L-3381 Livange Léiweng,1 Rue Fontebierg L-3381 Livange Léiweng,,,,,Garage Bob Mayer Sarl,,,,408.0,,,"1 Rue Fontebierg L-3381 Livange Léiweng, Luxembourg",49.5311952,6.1042378
8 Route de Luxembourg L-7759 Roost Bissen Roost Bissen,8 Route de Luxembourg L-7759 Roost Bissen Roost Bissen,,,,,,,,,,,,8 Route de Luxembourg L-7759 Roost Bissen Roost Bissen,49.7879982,6.0963678
2 Rue de lindustrie L-4823 Rodange Rodange,2 Rue de lindustrie L-4823 Rodange Rodange,,,,,,,,,,,,"2 Rue de lindustrie L-4823 Rodange Rodange, Luxembourg",49.6041205,6.1261084
11 Rue de Limpach L-3932 Mondercange Monnerech,11 Rue de Limpach L-3932 Mondercange Monnerech,,,,,,,,,,,,"11 Rue de Limpach L-3932 Mondercange Monnerech, Luxembourg",49.533644,5.9860854
6 Rue Dr Lucius L-8614 Reimberg Rémerech,6 Rue Dr Lucius L-8614 Reimberg Rémerech,,,,,,,,,,,,"6 Rue Dr Lucius L-8614 Reimberg Rémerech, Luxembourg",49.8008814,5.95684
1 Zone artisanale et Commerciale L-9085 Ettelbruck Ettelbréck,1 Zone artisanale et Commerciale L-9085 Ettelbruck Ettelbréck,,,,,,,,,,,,"1 Zone artisanale et Commerciale L-9085 Ettelbruck Ettelbréck, Luxembourg",49.83885395,6.096867051805389
L-7759 Roost Rouscht,L-7759 Roost Rouscht,,,,,,,,,,,,"L-7759 Roost Rouscht, Luxembourg",49.786483,6.0923543
36 Am Hénneschteneck L-9151 Eschdorf Eschduerf,36 Am Hénneschteneck L-9151 Eschdorf Eschduerf,,,,,,,,,4.0,,,"36 Am Hénneschteneck L-9151 Eschdorf Eschduerf, Luxembourg",49.883564750000005,5.932342059371072
94 Rue de Hobscheid L-8422 Steinfort Stengefort,94 Rue de Hobscheid L-8422 Steinfort Stengefort,,,,,,,,,,,,"94 Rue de Hobscheid L-8422 Steinfort Stengefort, Luxembourg",49.669175800000005,5.921644511508953
70 Avenue Guillaume L-1650 Luxembourg Létzebuerg,70 Avenue Guillaume L-1650 Luxembourg Létzebuerg,,,,,,,,,,,,70 Avenue Guillaume L-1650 Luxembourg Létzebuerg,49.6079668,6.11263
7IA Rue de Kreuzerbuch L-8370 Hobscheid Habscht,7IA Rue de Kreuzerbuch L-8370 Hobscheid Habscht,,,,,,,,,,,,"7IA Rue de Kreuzerbuch L-8370 Hobscheid Habscht, Luxembourg",49.7028758,5.9135787
103 Route de Luxembourg L-3515 Dudelange Diddeleng,103 Route de Luxembourg L-3515 Dudelange Diddeleng,,,,,,,,,,,,103 Route de Luxembourg L-3515 Dudelange Diddeleng,49.4898619,6.0826263
2 Rue de IIndustrie L-4823 Rodange Rodange,2 Rue de IIndustrie L-4823 Rodange Rodange,,,,,,,,,,,,"2 Rue de IIndustrie L-4823 Rodange Rodange, Luxembourg",49.6041205,6.1261084
30 Avenue Gordon Smith L-7740 Colmar-Berg Colmer-Bierg,30 Avenue Gordon Smith L-7740 Colmar-Berg Colmer-Bierg,,,,,,,,,384.0,,,"30 Avenue Gordon Smith L-7740 Colmar-Berg Colmer-Bierg, Luxembourg",49.8096258,6.09472375
6 Boulevard Pierre Dupong L-1430 Luxembourg Létzebuerg,6 Boulevard Pierre Dupong L-1430 Luxembourg Létzebuerg,,,,,,,,,,,,6 Boulevard Pierre Dupong L-1430 Luxembourg Létzebuerg,49.606497,6.1097021
L-3434 Dudelange Diddeleng,L-3434 Dudelange Diddeleng,,,,,,,,,,,,"L-3434 Dudelange Diddeleng, Luxembourg",49.49877095,6.110826749695324
33 Route de Gilsdorf L-9234 Diekirch Dikrech,33 Route de Gilsdorf L-9234 Diekirch Dikrech,,,,,,,,,,,,"33 Route de Gilsdorf L-9234 Diekirch Dikrech, Luxembourg",49.865894100000006,6.165579561117513
2 Elwenterstrooss L-9952 Drinklange Drénkelt,2 Elwenterstrooss L-9952 Drinklange Drénkelt,,,,,,,,,,,,"2 Elwenterstrooss L-9952 Drinklange Drénkelt, Luxembourg",50.1366184,6.017717225459014
34 Rue des Romains L-3432 Dudelange Diddeleng,34 Rue des Romains L-3432 Dudelange Diddeleng,,,,,,,,,393.0,,,"34 Rue des Romains L-3432 Dudelange Diddeleng, Luxembourg",49.6000874,6.1397223
10 Route dEttelbruck L-9160 Ingeldorf Angelduerf,10 Route dEttelbruck L-9160 Ingeldorf Angelduerf,,,,,,,,,,,,"10 Route dEttelbruck L-9160 Ingeldorf Angelduerf, Luxembourg",,
144 Rue de Noertzange L-3670 Kayl Kal,144 Rue de Noertzange L-3670 Kayl Kal,,,,,,,,,,,,"144 Rue de Noertzange L-3670 Kayl Kal, Luxembourg",49.4933122,6.0477854
60 Réidenerstrooss L-8530 Ell Ell,60 Réidenerstrooss L-8530 Ell Ell,,,,,ate sector  Servicesatthe specialists  Trading,,,,,,"irch by activity Duty Pharmacies Digital Marketing Agency irch by location Hospitals on duty Marketing solutions for companies juest a quote Route information Website creation ctical guide Horoscope Ecommerce website Postcode Finder Business Directory Registration ctly access an activity on Luxembourg cation, training and employment  Garage, transport and mobility  Hotel,Restaurant, Tavern e Inc age Editus.lu provides you with all the results for Garage. Refine your search Luxembourg, Esch-sur-Alzette, Bertrange, Bodywork, ing for address, telephone number, fax number... Call your contacts free of charge and locate them on a map.","60 Réidenerstrooss L-8530 Ell Ell, Luxembourg",49.76543125,5.865443835697212
113 Route dArlon L-8211 Mamer Mamer,113 Route dArlon L-8211 Mamer Mamer,,,,,,,,,,,,"113 Route dArlon L-8211 Mamer Mamer, Luxembourg",49.6364777,6.0117598
8 Rue des Romains L-6478 Echternach lechternach,8 Rue des Romains L-6478 Echternach lechternach,,,,,RDG - Lease Service Conseil,,,,,,,"8 Rue des Romains L-6478 Echternach lechternach, Luxembourg",49.807053499999995,6.411745804840462
Tl Rue de Limpach L-3932 Mondercange Monnerech,Tl Rue de Limpach L-3932 Mondercange Monnerech,,,,,Smart Pop Up Store,,,,,,,"Tl Rue de Limpach L-3932 Mondercange Monnerech, Luxembourg",49.5400613,5.9827894
45 Rue de Bouillon L-1248 Luxembourg Létzebuerg,45 Rue de Bouillon L-1248 Luxembourg Létzebuerg,,,,,,,,,,,,45 Rue de Bouillon L-1248 Luxembourg Létzebuerg,49.5992013,6.1135933
72-78 Rue de Belvaux L-4025 Esch-sur-Alzette Esch-Uelzecht,72-78 Rue de Belvaux L-4025 Esch-sur-Alzette Esch-Uelzecht,,,,,,,,,,,,"72-78 Rue de Belvaux L-4025 Esch-sur-Alzette Esch-Uelzecht, Luxembourg",49.50247775,5.973582493765903
3 Route de Longwy L-4830 Rodange Rodange,3 Route de Longwy L-4830 Rodange Rodange,,,,,Auto Discount  Cie Sarl,,,,,,,"3 Route de Longwy L-4830 Rodange Rodange, Luxembourg",49.5505075,5.842462502314316
36 Rue Aloyse Ludovissy L-5898 Syren Siren,36 Rue Aloyse Ludovissy L-5898 Syren Siren,,,,,Auto Moteurs Express Service Sarl,,,,,,,"36 Rue Aloyse Ludovissy L-5898 Syren Siren, Luxembourg",49.56730595,6.219168700000001
115 Ceinture um Schlass L-5880 Hesperange Hesper,115 Ceinture um Schlass L-5880 Hesperange Hesper,,,,,,,,,,,,"115 Ceinture um Schlass L-5880 Hesperange Hesper, Luxembourg",49.5721564,6.1501722
1Zone artisanale et Commerciale L-9085 Ettelbruck Ettelbréck,1Zone artisanale et Commerciale L-9085 Ettelbruck Ettelbréck,,,,,,,,,,,,"1Zone artisanale et Commerciale L-9085 Ettelbruck Ettelbréck, Luxembourg",49.83822895,6.0955523410015715
89F Rue Pafebruch L-8308 Capellen Kapellen,89F Rue Pafebruch L-8308 Capellen Kapellen,,,,,,,,,,,,"89F Rue Pafebruch L-8308 Capellen Kapellen, Luxembourg",,
9 Zone A. C. Klengbusbierg L-7795 Bissen Biissen,9 Zone A. C. Klengbusbierg L-7795 Bissen Biissen,,,,,,,,,,,,"9 Zone A. C. Klengbusbierg L-7795 Bissen Biissen, Luxembourg",49.788905549999996,6.08442018713599
226 Route de Thionville L-2620 Luxembourg Létzebuerg,226 Route de Thionville L-2620 Luxembourg Létzebuerg,,,,,,,,,,,,226 Route de Thionville L-2620 Luxembourg Létzebuerg,49.587994949999995,6.142238577543131
L-5280 Sandweiler Sandweiler,L-5280 Sandweiler Sandweiler,,,,,,,,,345.0,,,"L-5280 Sandweiler Sandweiler, Luxembourg",49.6010039,6.206059
10 Landburger Park L-6311 Beaufort Beefort,10 Landburger Park L-6311 Beaufort Beefort,,,,,,,,,346.0,,,"10 Landburger Park L-6311 Beaufort Beefort, Luxembourg",49.8448865,6.289586592394271
2 Rue du Moulin L-4998 Schouweiler Schuller,2 Rue du Moulin L-4998 Schouweiler Schuller,,,,,TRUCK  BUS Rentals Sarl,,,,348.0,,,"2 Rue du Moulin L-4998 Schouweiler Schuller, Luxembourg",49.578526049999994,5.946732513548806
1 Fontebierg L-3381 Livange Léiweng,1 Fontebierg L-3381 Livange Léiweng,,,,,Auto Deal  Services Sarl,,,,349.0,,,"1 Fontebierg L-3381 Livange Léiweng, Luxembourg",49.5311952,6.1042378
2 Am Gassefeld L-5423 Ersange lerseng,2 Am Gassefeld L-5423 Ersange lerseng,,,,,,,,,350.0,,,"2 Am Gassefeld L-5423 Ersange lerseng, Luxembourg",,
12 Rue des Bruyéres L-1274 Howald Houwald,12 Rue des Bruyéres L-1274 Howald Houwald,,,,,,,,,,,,"12 Rue des Bruyéres L-1274 Howald Houwald, Luxembourg",49.5771477,6.1368054
240 Route de Luxembourg L-3515 Dudelange Diddeleng,240 Route de Luxembourg L-3515 Dudelange Diddeleng,,,,,Scooter and More Sarl,,,,,,,240 Route de Luxembourg L-3515 Dudelange Diddeleng,49.4956959,6.0863162
45 An der Fraesbich L-8509 Redange-sur-Attert Réiden Atert,45 An der Fraesbich L-8509 Redange-sur-Attert Réiden Atert,,,,,,,,,,,,"45 An der Fraesbich L-8509 Redange-sur-Attert Réiden Atert, Luxembourg",49.7683426,5.8825355
80 Route de Luxembourg L-4876 Lamadelaine Rolleng,80 Route de Luxembourg L-4876 Lamadelaine Rolleng,,,,,,,,,,,,80 Route de Luxembourg L-4876 Lamadelaine Rolleng,49.5529134,5.8602251417910445
1 Rue de Huy L-9415 Vianden Veinen,1 Rue de Huy L-9415 Vianden Veinen,,,,,,,,,,,,"1 Rue de Huy L-9415 Vianden Veinen, Luxembourg",49.932055649999995,6.21965935305454
14 Rue des Forges L-5770 Weiler-la-Tour Weiler z,14 Rue des Forges L-5770 Weiler-la-Tour Weiler z,,,,,Hamer Exclusive Cars SA,,,,,,,"14 Rue des Forges L-5770 Weiler-la-Tour Weiler z, Luxembourg",49.542441249999996,6.197556387225504
13 Zone um Woeller L-4410 Soleuvre Zolwer,13 Zone um Woeller L-4410 Soleuvre Zolwer,,,,,,,,,357.0,,,"13 Zone um Woeller L-4410 Soleuvre Zolwer, Luxembourg",49.5362537,5.9375337499999965
195 Rue de Differdange L-4437 Soleuvre Zolwer,195 Rue de Differdange L-4437 Soleuvre Zolwer,,,,,,,,,358.0,,,"195 Rue de Differdange L-4437 Soleuvre Zolwer, Luxembourg",49.5222193,5.9212965
181 Route de Thionville L-2611 Howald Houwald,181 Route de Thionville L-2611 Howald Houwald,,,,,Lux Connection Export Sarl,,,,359.0,,,"181 Route de Thionville L-2611 Howald Houwald, Luxembourg",49.587914299999994,6.143272782117427
59 A Route de Bastogne L-9176 Niederfeulen Nidderfeelen,59 A Route de Bastogne L-9176 Niederfeulen Nidderfeelen,,,,,,,,,,,,"59 A Route de Bastogne L-9176 Niederfeulen Nidderfeelen, Luxembourg",49.8563333,6.0413572
19 C Rue de IEcole L-8466 Eischen Aischen,19 C Rue de IEcole L-8466 Eischen Aischen,,,,,ivate sector  Servicesatthe specialists  Trading,,,,,,"rvices Practical Company Ed sarch by activity Duty Pharmacies Digital Marketing Agency Ak quest a quote Route information Website creation Co actical guide Horoscope Ecommerce website Eo Postcode Finder Business Directory Registration Eo rectly access an activity on Luxembourg lucation, training and employment  Garage, transport and mobility  Hotel,Restaurant,Tavern  Indu dking for address, telephone number, fax number... Call your contacts free of charge and locate them on a map.","19 C Rue de IEcole L-8466 Eischen Aischen, Luxembourg",49.6870011,5.8787494
in Qa 1.0.2501.2403 Copyright  2025 - Editus Luxembourg S.A. - 208,"in Qa 1.0.2501.2403 Copyright  2025 - Editus Luxembourg S.A. - 208, rue de Noertzange L-3670 K",,,,,Bentley - Lamborghini Luxembourg -Garage M. Losch S.a.r.l.,,,,,,,"in Qa 1.0.2501.2403 Copyright 2025 - Editus Luxembourg S.A. - 208, rue de Noertzange L-3670 K",,
1 Boulevard F.W. Raiffeisen L-2411 Luxembourg Létzebuerg,1 Boulevard F.W. Raiffeisen L-2411 Luxembourg Létzebuerg,,,,,,,,,,,,1 Boulevard F.W. Raiffeisen L-2411 Luxembourg Létzebuerg,49.5878331,6.1168705
196 Rue de Differdange L-4437 Soleuvre Zolwer,196 Rue de Differdange L-4437 Soleuvre Zolwer,,,,,,,,,,,,"196 Rue de Differdange L-4437 Soleuvre Zolwer, Luxembourg",49.52098815,5.911521362548028
78-90 Route de Thionville L-2610 Luxembourg Létzebuerg,78-90 Route de Thionville L-2610 Luxembourg Létzebuerg,,,,,,,,,,,,78-90 Route de Thionville L-2610 Luxembourg Létzebuerg,49.5935918,6.1384465000000015
9 Zone A. C. Kléngbusbierg L-7795 Bissen Biissen,9 Zone A. C. Kléngbusbierg L-7795 Bissen Biissen,,,,,Trucks and Trailer Company SA,,,,,,,"9 Zone A. C. Kléngbusbierg L-7795 Bissen Biissen, Luxembourg",49.788905549999996,6.08442018713599
2 Route de Wilwerdange L-9911 Troisvierges Elwen,2 Route de Wilwerdange L-9911 Troisvierges Elwen,,,,,,,,,,,,"2 Route de Wilwerdange L-9911 Troisvierges Elwen, Luxembourg",50.1218628,6.0020351
261 Route dArlon L-1150 Luxembourg Létzebuerg,261 Route dArlon L-1150 Luxembourg Létzebuerg,,,,,,,,,,,,261 Route dArlon L-1150 Luxembourg Létzebuerg,49.6158008,6.1012403
681 Rue de Neudorf L-2220 Luxembourg Létzebuerg,681 Rue de Neudorf L-2220 Luxembourg Létzebuerg,,,,,,,,,,,,681 Rue de Neudorf L-2220 Luxembourg Létzebuerg,49.62271965,6.189384700843365
24 Rue de lindustrie L-8069 Bertrange Bartreng,24 Rue de lindustrie L-8069 Bertrange Bartreng,,,,,,,,,,,,"24 Rue de lindustrie L-8069 Bertrange Bartreng, Luxembourg",49.6129205,6.0604258
2 Rue Jacques Lamort L-6947 Niederanven Nidderaanwen,2 Rue Jacques Lamort L-6947 Niederanven Nidderaanwen,,,,,,Peugeot Rodenbourg Foetz,,,,,,"2 Rue Jacques Lamort L-6947 Niederanven Nidderaanwen, Luxembourg",49.64249985,6.262769043966893
1 Rue de IIndustrie L-3895 Foetz Feiz,1 Rue de IIndustrie L-3895 Foetz Feiz,,,,,,,,,,,,"1 Rue de IIndustrie L-3895 Foetz Feiz, Luxembourg",49.522716599999995,6.012114999999994
Hall 2 Zone Industrielle Rolach L-5280 Sandweiler Sandweiler,Hall 2 Zone Industrielle Rolach L-5280 Sandweiler Sandweiler,,,,,,,,,,,,"Hall 2 Zone Industrielle Rolach L-5280 Sandweiler Sandweiler, Luxembourg",49.60603545,6.202635905372647
106 Rue de Hobscheid L-8422 Steinfort Stengefort,106 Rue de Hobscheid L-8422 Steinfort Stengefort,,,,,,,,,,,,"106 Rue de Hobscheid L-8422 Steinfort Stengefort, Luxembourg",49.67067165,5.918904049999997
20 Z.A.C. Klengbousbierg L-7795 Bissen Biissen,20 Z.A.C. Klengbousbierg L-7795 Bissen Biissen,,,,,,,,,,,,"20 Z.A.C. Klengbousbierg L-7795 Bissen Biissen, Luxembourg",49.7885185,6.0865009
6a Um Woeller L-4410 Soleuvre Zolwer,6a Um Woeller L-4410 Soleuvre Zolwer,,,,,,,,,,,,"6a Um Woeller L-4410 Soleuvre Zolwer, Luxembourg",49.536775000000006,5.936146766277902
64A Rue de IEglise L-4552 Niederkorn Nidderkuer,64A Rue de IEglise L-4552 Niederkorn Nidderkuer,,,,,,,,,,,,"64A Rue de IEglise L-4552 Niederkorn Nidderkuer, Luxembourg",49.53758325,5.889887834255261
72 Route Principale L-7450 Lintgen Léntgen,72 Route Principale L-7450 Lintgen Léntgen,,,,,,,,,,,,"72 Route Principale L-7450 Lintgen Léntgen, Luxembourg",49.7148341,6.1280386
2 Rue St. Sebastien L-3752 Rumelange Rémeleng,2 Rue St. Sebastien L-3752 Rumelange Rémeleng,,,,,vate sector  Servicesatthe specialists  Trading,,,,,,"rvices Practical Company Ed arch by activity Duty Pharmacies Digital Marketing Agency Ak arch by location Hospitals on duty Marketing solutions for companies Co quest a quote Route information Website creation Co ictical guide Horoscope Ecommerce website Eo Postcode Finder Business Directory Registration Eo ectly access an activity on Luxembourg ication, training and employment  Garage, transport and mobility  Hotel,Restaurant,Tavern e Indu rage Editus.lu provides you with all the results for Garage. Refine your search Luxembourg, Esch-sur-Alzette, Bertrange, Bodywork, Ca king for address, telephone number, fax number... Call your contacts free of charge and locate them on a map.","2 Rue St. Sebastien L-3752 Rumelange Rémeleng, Luxembourg",49.4583983,6.0306759
in ao 1.0.2501.2403 Copyright  2025 - Editus Luxembourg S.A. - 208,"in ao 1.0.2501.2403 Copyright  2025 - Editus Luxembourg S.A. - 208, rue de Noertzange L-3670 K",,,,,,,,,,,,"in ao 1.0.2501.2403 Copyright 2025 - Editus Luxembourg S.A. - 208, rue de Noertzange L-3670 K",,
2 A Benzelt L-5426 Greiveldange Greiweldeng,2 A Benzelt L-5426 Greiveldange Greiweldeng,,,,,,,,,,,,"2 A Benzelt L-5426 Greiveldange Greiweldeng, Luxembourg",49.5872132,6.3604238
8 Haaptstrooss L-9163 Kehmen Kiemen,8 Haaptstrooss L-9163 Kehmen Kiemen,,,,,,,,,,,,"8 Haaptstrooss L-9163 Kehmen Kiemen, Luxembourg",49.9008948,6.036127164757388
319 Rue de Belval L-4024 Esch-sur-Alzette Esch-Uelzecht,319 Rue de Belval L-4024 Esch-sur-Alzette Esch-Uelzecht,,,,,,,,,,,,"319 Rue de Belval L-4024 Esch-sur-Alzette Esch-Uelzecht, Luxembourg",49.5036259,5.948715453669688
7 Rue des Trois Cantons L-3980 Wickrange Wickreng,7 Rue des Trois Cantons L-3980 Wickrange Wickreng,,,,,Fiat - Abarth  Alfa Romeo - Jeep Autopolis,,,,,,,"7 Rue des Trois Cantons L-3980 Wickrange Wickreng, Luxembourg",49.5443763,6.017291
33A Grand-Rue L-3394 Roeser Réiser,33A Grand-Rue L-3394 Roeser Réiser,,,,,,,,,307.0,,,"33A Grand-Rue L-3394 Roeser Réiser, Luxembourg",49.5418236,6.1463146
13 Rue Neugarten L-9422 Vianden Veinen,13 Rue Neugarten L-9422 Vianden Veinen,,,,,,,,,,,,"13 Rue Neugarten L-9422 Vianden Veinen, Luxembourg",,
54 Route dArlon L-8008 Strassen Stroossen,54 Route dArlon L-8008 Strassen Stroossen,,,,,Garage Beim Serge Sarl,,,,,,,"54 Route dArlon L-8008 Strassen Stroossen, Luxembourg",49.618767399999996,6.087432891569196
30F Z.A.E. Solupla L-8506 Redange-sur-Attert Réiden Atert,30F Z.A.E. Solupla L-8506 Redange-sur-Attert Réiden Atert,,,,,,,,,,,,"30F Z.A.E. Solupla L-8506 Redange-sur-Attert Réiden Atert, Luxembourg",,
13 Rue de Dahlem L-8369 Hivange Héiweng,13 Rue de Dahlem L-8369 Hivange Héiweng,,,,,,,,,,,,"13 Rue de Dahlem L-8369 Hivange Héiweng, Luxembourg",49.60164145,5.931442371717068
10 Route dArlon L-7471 Saeul Séll,10 Route dArlon L-7471 Saeul Séll,,,,,,,,,,,,"10 Route dArlon L-7471 Saeul Séll, Luxembourg",,
9 Rue du Cimetiére L-9356 Bettendorf Bettendref,9 Rue du Cimetiére L-9356 Bettendorf Bettendref,,,,,,,,,,,,"9 Rue du Cimetiére L-9356 Bettendorf Bettendref, Luxembourg",49.8760687,6.220270979827884
10 Um Mierscherbierg L-7526 Mersch Miersch,10 Um Mierscherbierg L-7526 Mersch Miersch,,,,,,,,,,,,"10 Um Mierscherbierg L-7526 Mersch Miersch, Luxembourg",49.75996859999999,6.101385106673307
15 Rue de IIndustrie L-8069 Bertrange Bartreng,15 Rue de IIndustrie L-8069 Bertrange Bartreng,,,,,,,,,,,,"15 Rue de IIndustrie L-8069 Bertrange Bartreng, Luxembourg",49.6129205,6.0604258
25a Rue Principale L-8376 Kahler Koler,25a Rue Principale L-8376 Kahler Koler,,,,,Garage Ries Fréres Sarl,,,,317.0,,,"25a Rue Principale L-8376 Kahler Koler, Luxembourg",49.6294093,5.91653179411276
24 Route dArlon L-8210 Mamer Mamer,24 Route dArlon L-8210 Mamer Mamer,,,,,,,,,,,,"24 Route dArlon L-8210 Mamer Mamer, Luxembourg",49.62623165,6.034326036671089
8 Route de Bigonville L-8832 Rombach-Martelange Roumicht,8 Route de Bigonville L-8832 Rombach-Martelange Roumicht,,,,,,,,,,,,"8 Route de Bigonville L-8832 Rombach-Martelange Roumicht, Luxembourg",49.83337355,5.740990200067161
4 AMillesch L-6919 Roodt-sur-Syre Rued-Sir,4 AMillesch L-6919 Roodt-sur-Syre Rued-Sir,,,,,,,,,,,,"4 AMillesch L-6919 Roodt-sur-Syre Rued-Sir, Luxembourg",49.6655626,6.302365
32 Route de Diekirch L-9455 Fouhren Furen,32 Route de Diekirch L-9455 Fouhren Furen,,,,,,,,,288.0,,,"32 Route de Diekirch L-9455 Fouhren Furen, Luxembourg",49.6616819,6.1333176
64 Rue Jean-Pierre Bausch L-4023 Esch-sur-Alzette Esch-Uelzecht,64 Rue Jean-Pierre Bausch L-4023 Esch-sur-Alzette Esch-Uelzecht,,,,,Autohaus Reiter GmbH  Co,,,,,,,"64 Rue Jean-Pierre Bausch L-4023 Esch-sur-Alzette Esch-Uelzecht, Luxembourg",49.4858256,5.977878
48 Rue Jos Kieffer L-4176 Esch-sur-Alzette Esch-Uelzecht,48 Rue Jos Kieffer L-4176 Esch-sur-Alzette Esch-Uelzecht,,,,,,,,,,,,"48 Rue Jos Kieffer L-4176 Esch-sur-Alzette Esch-Uelzecht, Luxembourg",49.510348050000005,5.968516354712346
296-298 Route de Longwy L-1940 Luxembourg Létzebuerg,296-298 Route de Longwy L-1940 Luxembourg Létzebuerg,,,,,,,,,,,,296-298 Route de Longwy L-1940 Luxembourg Létzebuerg,49.6055993,6.0982891
8 Route de Longwy L-8080 Bertrange Bartreng,8 Route de Longwy L-8080 Bertrange Bartreng,,,,,,,,,,,,"8 Route de Longwy L-8080 Bertrange Bartreng, Luxembourg",49.60427425,6.075528454307433
98 Route de Luxembourg L-4760 Pétange Péiteng,98 Route de Luxembourg L-4760 Pétange Péiteng,,,,,,,,,,,,98 Route de Luxembourg L-4760 Pétange Péiteng,49.5579421,5.884330001552184
53 Route de Peppange L-3270 Bettembourg Beetebuerg,53 Route de Peppange L-3270 Bettembourg Beetebuerg,,,,,,,,,297.0,,,"53 Route de Peppange L-3270 Bettembourg Beetebuerg, Luxembourg",49.51915225,6.1057922
40A Rue Robert Schuman L-5751 Frisange Fréiseng,40A Rue Robert Schuman L-5751 Frisange Fréiseng,,,,,,,,,,,,"40A Rue Robert Schuman L-5751 Frisange Fréiseng, Luxembourg",49.50792385,6.191892550000002
318 Route de Longwy L-1940 Luxembourg Létzebuerg,318 Route de Longwy L-1940 Luxembourg Létzebuerg,,,,,Frontlines Pneus  Autos Services,,,,,,,318 Route de Longwy L-1940 Luxembourg Létzebuerg,49.605295,6.096301
13 Haaptstrooss L-8538 Hovelange Huewel,13 Haaptstrooss L-8538 Hovelange Huewel,,,,,jate sector  Servicesatthe specialists  Trading,,,,,,"arch by activity Duty Pharmacies Digital Marketing Agency arch by location Hospitals on duty Marketing solutions for companies C quest a quote Route information Website creation ictical guide Horoscope Ecommerce website E Postcode Finder Business Directory Registration E ectly access an activity on Luxembourg ication, training and employment  Garage, transport and mobility  Hotel,Restaurant,Tavern e Ind age Editus.lu provides you with all the results for Garage. Refine your search Luxembourg, Esch-sur-Alzette, Bertrange, Bodywork, C ing for address, telephone number, fax number... Call your contacts free of charge and locate them on a map.","13 Haaptstrooss L-8538 Hovelange Huewel, Luxembourg",49.72295605,5.910802754841561
"in   1.0.2501.2403 Copyright  2025 - Editus Luxembourg S.A. - 208, rue de Noertzange L-3670",L-4149 Esch-sur-Alzette Esch-Uelzecht,,,,,,,,,,,,"L-4149 Esch-sur-Alzette Esch-Uelzecht, Luxembourg",49.4959628,5.9850306
95 Rue des Bruyéres L-1274 Howald Houwald,95 Rue des Bruyéres L-1274 Howald Houwald,,,,,Garage Metti Vélzer Sarl,,,,263.0,,,"95 Rue des Bruyéres L-1274 Howald Houwald, Luxembourg",49.5771477,6.1368054
10 Route de Grevenmacher L-6912 Roodt-sur-Syre Rued-Sir,10 Route de Grevenmacher L-6912 Roodt-sur-Syre Rued-Sir,,,,,,,,,,,,"10 Route de Grevenmacher L-6912 Roodt-sur-Syre Rued-Sir, Luxembourg",49.6667697,6.306410370807466
6 A Route de Luxembourg L-6910 Roodt-sur-Syre Rued-Sir,6 A Route de Luxembourg L-6910 Roodt-sur-Syre Rued-Sir,,,,,,,,,,,,6 A Route de Luxembourg L-6910 Roodt-sur-Syre Rued-Sir,49.6654466,6.302186949999999
113 Route de Longwy L-4994 Schouweiler Schuller,113 Route de Longwy L-4994 Schouweiler Schuller,,,,,,,,,,,,"113 Route de Longwy L-4994 Schouweiler Schuller, Luxembourg",49.5818007,5.960991833997339
L-4562 Differdange Déifferdang,L-4562 Differdange Déifferdang,,,,,,,,,267.0,,,"L-4562 Differdange Déifferdang, Luxembourg",,
6 Route de Diekirch L-9834 Holzthum Holztem,6 Route de Diekirch L-9834 Holzthum Holztem,,,,,Garage du Riesenhoff SA,,,,268.0,,,"6 Route de Diekirch L-9834 Holzthum Holztem, Luxembourg",49.7045996,5.8286134
32 Rue Principale L-8818 Grevels Gréiwels,32 Rue Principale L-8818 Grevels Gréiwels,,,,,,,,,,,,"32 Rue Principale L-8818 Grevels Gréiwels, Luxembourg",49.85197615,5.913898397555656
6 Route de Luxembourg L-5670 Altwies Altwis,6 Route de Luxembourg L-5670 Altwies Altwis,,,,,,,,,,,,6 Route de Luxembourg L-5670 Altwies Altwis,49.510254200000006,6.25606310068341
1 Rue Alphonse Sinner L-7546 Rollingen Rolleng,1 Rue Alphonse Sinner L-7546 Rollingen Rolleng,,,,,,,,,,,,"1 Rue Alphonse Sinner L-7546 Rollingen Rolleng, Luxembourg",49.740579100000005,6.1153067721271395
3 Zone A. C. Kléngbusbierg L-7795 Bissen Biissen,3 Zone A. C. Kléngbusbierg L-7795 Bissen Biissen,,,,,,,,,,,,"3 Zone A. C. Kléngbusbierg L-7795 Bissen Biissen, Luxembourg",49.788905549999996,6.08442018713599
1 Avenue de Luxembourg L-4950 Bascharage Nidderkderjeng,1 Avenue de Luxembourg L-4950 Bascharage Nidderkderjeng,,,,,,,,,274.0,,,1 Avenue de Luxembourg L-4950 Bascharage Nidderkderjeng,49.56211505,5.897397161756096
1 Zone Industrielle Letzebuerger Heck L-3844 Schifflange Schéffleng,1 Zone Industrielle Letzebuerger Heck L-3844 Schifflange Schéffleng,,,,,,,,,,,,"1 Zone Industrielle Letzebuerger Heck L-3844 Schifflange Schéffleng, Luxembourg",49.5209327,6.0164355
49 Duarrefstrooss L-9964 Huldange Huldang,49 Duarrefstrooss L-9964 Huldange Huldang,,,,,,,,,278.0,,,"49 Duarrefstrooss L-9964 Huldange Huldang, Luxembourg",50.16411815,6.01476486808076
6a Rue Principale L-9806 Hosingen Housen,6a Rue Principale L-9806 Hosingen Housen,,,,,,,,,279.0,,,"6a Rue Principale L-9806 Hosingen Housen, Luxembourg",,
110-112 Rue de Hobscheid L-8422 Steinfort Stengefort,110-112 Rue de Hobscheid L-8422 Steinfort Stengefort,,,,,rivate sector e Services atthe specialists  Trading,,,,,,"earch by activity Duty Pharmacies Digital Marketing Agency earch by location Hospitals on duty Marketing solutions for companies equest a quote Route information Website creation ractical guide Horoscope Ecommerce website Postcode Finder Business Directory Registration Jirectly access an activity on Luxembourg ducation, training and employment  Garage, transport and mobility  Hotel,Restaurant,Tavern e In arage Editus.lu provides you with all the results for Garage. Refine your search Luxembourg, Esch-sur-Alzette, Bertrange, Bodywork,","110-112 Rue de Hobscheid L-8422 Steinfort Stengefort, Luxembourg",49.671651,5.918250205672461
2 Rue de IEau L-4920 Bascharage Nidderkderjeng,2 Rue de IEau L-4920 Bascharage Nidderkderjeng,,,,,Autohaus Reiter GmbH  Co,,,,,,,"2 Rue de IEau L-4920 Bascharage Nidderkderjeng, Luxembourg",49.565455799999995,5.907228941919136
35 Route dEsch L-3230 Bettembourg Beetebuerg,35 Route dEsch L-3230 Bettembourg Beetebuerg,,,,,Auto Thionville Casse Auto,,,,,,,"35 Route dEsch L-3230 Bettembourg Beetebuerg, Luxembourg",,
9 Rue Jéréme de Busleyden L-9639 Boulaide Bauschelt,9 Rue Jéréme de Busleyden L-9639 Boulaide Bauschelt,,,,,,,,,,,,"9 Rue Jéréme de Busleyden L-9639 Boulaide Bauschelt, Luxembourg",49.88556595,5.816566941318351
14 Rue J.-P. Thill L-9085 Ettelbruck Ettelbréck,14 Rue J.-P. Thill L-9085 Ettelbruck Ettelbréck,,,,,,,,,,,,"14 Rue J.-P. Thill L-9085 Ettelbruck Ettelbréck, Luxembourg",49.838484550000004,6.096756319884234
8 Rue du Commerce L-3895 Foetz Feiz,8 Rue du Commerce L-3895 Foetz Feiz,,,,,,,,,,,,"8 Rue du Commerce L-3895 Foetz Feiz, Luxembourg",49.52273,6.0149515
37-41 Route de lEurope L-5531 Remich Réimech,37-41 Route de lEurope L-5531 Remich Réimech,,,,,,,,,,,,"37-41 Route de lEurope L-5531 Remich Réimech, Luxembourg",,
12 Route dEttelbruck L-9160 Ingeldorf Angelduerf,12 Route dEttelbruck L-9160 Ingeldorf Angelduerf,,,,,,,,,,,,"12 Route dEttelbruck L-9160 Ingeldorf Angelduerf, Luxembourg",,
20 Rue dArlon L-9155 Grosbous Groussbus,20 Rue dArlon L-9155 Grosbous Groussbus,,,,,,,,,,,,"20 Rue dArlon L-9155 Grosbous Groussbus, Luxembourg",,
2 Weltzerstrooss L-9643 Buederscheid Bitscht,2 Weltzerstrooss L-9643 Buederscheid Bitscht,,,,,,,,,,,,"2 Weltzerstrooss L-9643 Buederscheid Bitscht, Luxembourg",49.9328131,5.939743248207066
18 Route dEttelbruck L-9230 Diekirch Dikrech,18 Route dEttelbruck L-9230 Diekirch Dikrech,,,,,,,,,,,,"18 Route dEttelbruck L-9230 Diekirch Dikrech, Luxembourg",,
8 Zone dActivités Grousswiss L-6833 Biwer Biwer,8 Zone dActivités Grousswiss L-6833 Biwer Biwer,,,,,Centrale de Jantes Eurl Citroén CAR Avenue Dudelange,,,,,,,"8 Zone dActivités Grousswiss L-6833 Biwer Biwer, Luxembourg",49.697528399999996,6.38192341255061
1 Route de Luxembourg L-3515 Dudelange Diddeleng,1 Route de Luxembourg L-3515 Dudelange Diddeleng,,,,,,,,,,,,1 Route de Luxembourg L-3515 Dudelange Diddeleng,49.4840333,6.0802471
1 Route de Remich L-5690 Ellange Elleng,1 Route de Remich L-5690 Ellange Elleng,,,,,,,,,,,,"1 Route de Remich L-5690 Ellange Elleng, Luxembourg",49.515363050000005,6.307102343265632
48 Hiel L-5485 Wormeldange-Haut Wormer Berreg,48 Hiel L-5485 Wormeldange-Haut Wormer Berreg,,,,,,,,,,,,"48 Hiel L-5485 Wormeldange-Haut Wormer Berreg, Luxembourg",49.6127903,6.3982728
47 Duarrefstrooss L-9990 Weiswampach Wdiswampech,47 Duarrefstrooss L-9990 Weiswampach Wdiswampech,,,,,,,,,,,,"47 Duarrefstrooss L-9990 Weiswampach Wdiswampech, Luxembourg",50.1367853,6.0757723
31 Rue St Nicolas L-4263 Esch-sur-Alzette Esch-Uelzecht,31 Rue St Nicolas L-4263 Esch-sur-Alzette Esch-Uelzecht,,,,,,,,,,,,"31 Rue St Nicolas L-4263 Esch-sur-Alzette Esch-Uelzecht, Luxembourg",49.4953428,5.991786841936571
5 Quai de la Moselle L-5405 Bech-Kleinmacher Bech-Maacher,5 Quai de la Moselle L-5405 Bech-Kleinmacher Bech-Maacher,,,,,,,,,220.0,,,"5 Quai de la Moselle L-5405 Bech-Kleinmacher Bech-Maacher, Luxembourg",49.5208005,6.3569481
1-2 An der Schmelz L-4328 Esch-sur-Alzette Esch-Uelzecht,1-2 An der Schmelz L-4328 Esch-sur-Alzette Esch-Uelzecht,,,,,Garage Losch  Cie Sarl,,,,,,,"1-2 An der Schmelz L-4328 Esch-sur-Alzette Esch-Uelzecht, Luxembourg",49.496053399999994,5.9677919558414185
L-6131 Junglinster Jonglénster,L-6131 Junglinster Jonglénster,,,,,Garage M. Losch Bereldange  Losch FS,,,,,,,"L-6131 Junglinster Jonglénster, Luxembourg",49.7057648,6.2512708
6 Cité Grand-Duc Jean L-7233 Bereldange Bareldeng,6 Cité Grand-Duc Jean L-7233 Bereldange Bareldeng,,,,,,,,,,,,"6 Cité Grand-Duc Jean L-7233 Bereldange Bareldeng, Luxembourg",49.6539435,6.1295519
14 Rue de IEglise L-4732 Pétange Péiteng,14 Rue de IEglise L-4732 Pétange Péiteng,,,,,Kiggens Classic Workshop Sarl,,,,234.0,,,"14 Rue de IEglise L-4732 Pétange Péiteng, Luxembourg",49.5570558,5.8765559
107 Rue Principale L-9834 Holzthum Holztem,107 Rue Principale L-9834 Holzthum Holztem,,,,,,,,,,,,"107 Rue Principale L-9834 Holzthum Holztem, Luxembourg",,
3 Rue des Artisans L-4566 Niederkorn Nidderkuer,3 Rue des Artisans L-4566 Niederkorn Nidderkuer,,,,,,,,,,,,"3 Rue des Artisans L-4566 Niederkorn Nidderkuer, Luxembourg",49.5947487,6.1096684
5 Am Eck L-8715 Everlange lewerleng,5 Am Eck L-8715 Everlange lewerleng,,,,,ARS Automobile Repair Systems,,,,,,,"5 Am Eck L-8715 Everlange lewerleng, Luxembourg",49.773425,5.9554614
Sm 9 Rue Pierre Kersch L-4175 Esch-sur-Alzette Esch-Uelzecht,Sm 9 Rue Pierre Kersch L-4175 Esch-sur-Alzette Esch-Uelzecht,,,,,Garage Smart Repair Bodywork - Motor vehicle,,,,,,"Nous sommes spécialisés dans lart du débosselage sans peinture, une technique innovante et efficace pour restaurer lapparence originale de votre véhicule sans recourir G une nouvelle couche de peinture codteuse.Que ce soit des dégGts causés par la...","Sm 9 Rue Pierre Kersch L-4175 Esch-sur-Alzette Esch-Uelzecht, Luxembourg",49.4842984,5.9765618
7 Rue du Moulin L-7376 Bofferdange Bouferdeng,7 Rue du Moulin L-7376 Bofferdange Bouferdeng,,,,,,,,,,,,"7 Rue du Moulin L-7376 Bofferdange Bouferdeng, Luxembourg",49.68766515,6.14106265
128 Route de Thionville L-2610 Luxembourg Létzebuerg,128 Route de Thionville L-2610 Luxembourg Létzebuerg,,,,,,,,,,,,128 Route de Thionville L-2610 Luxembourg Létzebuerg,49.59246655,6.139368638968293
4 Rue des Artisans L-3895 Foetz Feiz,4 Rue des Artisans L-3895 Foetz Feiz,,,,,,,,,,,,"4 Rue des Artisans L-3895 Foetz Feiz, Luxembourg",49.5249156,6.0106581
2 Route de Cruchten L-7759 Roost Rouscht,2 Route de Cruchten L-7759 Roost Rouscht,,,,,,,,,,,,"2 Route de Cruchten L-7759 Roost Rouscht, Luxembourg",49.79020605,6.098712611237275
12 Route dArlon L-8008 Strassen Stroossen,12 Route dArlon L-8008 Strassen Stroossen,,,,,,,,,,,,"12 Route dArlon L-8008 Strassen Stroossen, Luxembourg",49.6173847,6.0938052
40-42 Rue de IIndustrie L-8069 Strassen Stroossen,40-42 Rue de IIndustrie L-8069 Strassen Stroossen,,,,,Jaguar Land Rover Luxembourg,,,,,,,"40-42 Rue de IIndustrie L-8069 Strassen Stroossen, Luxembourg",49.612085,6.0779274
9 Zone dAménag. Concertée Haneboesch II L-4563 Differdange Déifferdang,9 Zone dAménag. Concertée Haneboesch II L-4563 Differdange Déifferdang,,,,,Garage Robert Gelz Sarl,,,,,,,"9 Zone dAménag. Concertée Haneboesch II L-4563 Differdange Déifferdang, Luxembourg",,
22 Rue de Luxembourg L-8440 Steinfort Stengefort,22 Rue de Luxembourg L-8440 Steinfort Stengefort,,,,,,,,,,,,22 Rue de Luxembourg L-8440 Steinfort Stengefort,49.6596728,5.91765107686018
9 Rue Wiltheim L-5465 Waldbredimus Waldbriedemes,9 Rue Wiltheim L-5465 Waldbredimus Waldbriedemes,,,,Monday to,"variety of professionals, brands, and services.",,,,,,It is now much easier to find a garage in Luxembourg. Vous souhaitez étre mis en avant,"9 Rue Wiltheim L-5465 Waldbredimus Waldbriedemes, Luxembourg",,
110 Rue de Luxembourg L-4221 Esch-sur-Alzette Esch-Uelzecht,110 Rue de Luxembourg L-4221 Esch-sur-Alzette Esch-Uelzecht,,,,,,,,,,,,110 Rue de Luxembourg L-4221 Esch-sur-Alzette Esch-Uelzecht,49.503474,5.9876422
7 Rue Neuve L-3938 Mondercange Monnerech,7 Rue Neuve L-3938 Mondercange Monnerech,,,,,,,,,,,,"7 Rue Neuve L-3938 Mondercange Monnerech, Luxembourg",49.5367704,5.9892227
1 Rue HiehI L-6131 Junglinster Jonglénster,1 Rue HiehI L-6131 Junglinster Jonglénster,,,,,,,,,,,,"1 Rue HiehI L-6131 Junglinster Jonglénster, Luxembourg",49.706659900000005,6.254305039252662
42 Rue Hiehl - Zone dActivité  Comm. Laangwiss L-6131 Junglinster Jonglénster,42 Rue Hiehl - Zone dActivité  Comm. Laangwiss L-6131 Junglinster Jonglénster,,,,,,,,,,,,"42 Rue Hiehl - Zone dActivité Comm. Laangwiss L-6131 Junglinster Jonglénster, Luxembourg",49.70414255,6.254158962669066
55-57 Rue Basse L-3813 Schifflange Schéffleng,55-57 Rue Basse L-3813 Schifflange Schéffleng,,,,,,,,,,,,"55-57 Rue Basse L-3813 Schifflange Schéffleng, Luxembourg",49.5061757,6.015481976641077
43 Route dArlon L-8706 Useldange Useldeng,43 Route dArlon L-8706 Useldange Useldeng,,,,,,,,,188.0,,,"43 Route dArlon L-8706 Useldange Useldeng, Luxembourg",49.7641537,5.9761866
477 Route de Thionville L-5887 Alzingen Alzeng,477 Route de Thionville L-5887 Alzingen Alzeng,,,,,,Renault Groupe Autosphere  Dudelange,,,,,,"477 Route de Thionville L-5887 Alzingen Alzeng, Luxembourg",49.5661269,6.1616292
97 Rue Muhlenweg L-2155 Luxembourg Létzebuerg,97 Rue Muhlenweg L-2155 Luxembourg Létzebuerg,,,,,,,,,,,,97 Rue Muhlenweg L-2155 Luxembourg Létzebuerg,49.5929922,6.12919463734171
3 Rue Pierre Grégoire L-4702 Pétange Péiteng,3 Rue Pierre Grégoire L-4702 Pétange Péiteng,,,,,,,,,,,,"3 Rue Pierre Grégoire L-4702 Pétange Péiteng, Luxembourg",49.5566487,5.867233843631439
4l Zone dactivité Triangle Vert L-5691 Ellange Elleng,4l Zone dactivité Triangle Vert L-5691 Ellange Elleng,,,,,,,,,,,,"4l Zone dactivité Triangle Vert L-5691 Ellange Elleng, Luxembourg",49.5124511,6.300342464569674
20 Zone dactivité  Commerciale Klengbousbierg L-7795 Bissen Biissen,20 Zone dactivité  Commerciale Klengbousbierg L-7795 Bissen Biissen,,,,,,,,,,,,"20 Zone dactivité Commerciale Klengbousbierg L-7795 Bissen Biissen, Luxembourg",49.7883584,6.0867972
37 Dikrecherstrooss L-8523 Beckerich Biekerech,37 Dikrecherstrooss L-8523 Beckerich Biekerech,,,,,,,,,,,,"37 Dikrecherstrooss L-8523 Beckerich Biekerech, Luxembourg",49.73277655,5.886188677415455
1 Gaessel L-8282 Kehlen Kielen,1 Gaessel L-8282 Kehlen Kielen,,,,,,,,,,,,"1 Gaessel L-8282 Kehlen Kielen, Luxembourg",49.67017,6.0327214
55 Haaptstrooss L-9835 Hoscheid-Dickt Houschter-Déckt,55 Haaptstrooss L-9835 Hoscheid-Dickt Houschter-Déckt,,,,,,,,,,,,"55 Haaptstrooss L-9835 Hoscheid-Dickt Houschter-Déckt, Luxembourg",49.9762615,6.0912846
2 Rue Victor Braun L-6744 Grevenmacher Gréiwemaacher,2 Rue Victor Braun L-6744 Grevenmacher Gréiwemaacher,,,,,,,,,,,,"2 Rue Victor Braun L-6744 Grevenmacher Gréiwemaacher, Luxembourg",49.6779012,6.4383327113926425
45 Rue de IIndustrie L-8069 Strassen Stroossen,45 Rue de IIndustrie L-8069 Strassen Stroossen,,,,Monday to,"variety of professionals, brands, and services.",,,,,,It is now much easier to find a garage in Luxembourg. AUTOPOLIS Vous souhaitez étre mis en avant,"45 Rue de IIndustrie L-8069 Strassen Stroossen, Luxembourg",49.6129205,6.0604258
ES 9 Kriibsebaach L-9365 Eppeldorf Eppelduerf,ES 9 Kriibsebaach L-9365 Eppeldorf Eppelduerf,,,,Monday to 0730,"de garages, de carports et dautres réalisations en bois. De la planification en passant par le suivi des travaux Ask for a quote  Website Garden Gazebos Contractors Landscaper Garage",,,,,,,"ES 9 Kriibsebaach L-9365 Eppeldorf Eppelduerf, Luxembourg",49.8445655,6.2434433428504175
23 Rue Léon Laval L-3372 Leudelange Leideleng,23 Rue Léon Laval L-3372 Leudelange Leideleng,,,,Ba A Monday to 1000,"référence Skoda au Luxembourg mais aussi un... Véhicule sale Tyres Car bodies Garage AVU, Aménagement de voitures utilitaires by Breger Sarl",,,,,,,"23 Rue Léon Laval L-3372 Leudelange Leideleng, Luxembourg",49.571833850000004,6.079190900546873
fe ia  4lA Zone Industrielle L-8287 Kehlen Kielen,fe ia  4lA Zone Industrielle L-8287 Kehlen Kielen,,,,Monday to 0900,"SORTIMO has designed, manufactured, sold van racking solutions. The portfolio includes solutions for various commercial activities, crafts and... Commercial vehicle Development of commercial vehicle Véhicule sale Electric car Garage",,,,,,,"fe ia 4lA Zone Industrielle L-8287 Kehlen Kielen, Luxembourg",,
4 Rue de Avenir L-3895 Foetz Feiz,4 Rue de Avenir L-3895 Foetz Feiz,,,,Monday to 0700,Nous avons le plaisir de vous accueillir d travers notre agence Luxembourgeoise  ADS Concept Car est un Véhicule sale Second hand car Luxury car Garage Liebaert Claude Gérant associé,,,,,3.0,,"4 Rue de Avenir L-3895 Foetz Feiz, Luxembourg",49.523866749999996,6.008083840853849
L-2633 Senningerberg Sennengerbierg,L-2633 Senningerberg Sennengerbierg,,,,ART ARS Monday to 0900,"Monsieur Liébaert Claude est gérant-associé de Ientreprise Nouveaux Ets Liébaert, entreprise familliale créée métaux, la demolition automobile... Recycling Companies Metal recycling Waste recycling Cars - Breakers yards Garage lagence automobile by ARTCARS",,,,,,,"L-2633 Senningerberg Sennengerbierg, Luxembourg",49.649554,6.2262751
roetz  Rue de lAvenir L-3895 Foetz Feiz,roetz  Rue de lAvenir L-3895 Foetz Feiz,,,,Monday to 0830,"LAgence Automobile by ARTCARS est un intermédiaire pour les particuliers qui souhaitent vendre et acheter un véhicule doccasion.Basé sur le méme principe quune agence immobiliére, Agence Automobile by Véhicule sale Sale warehouse Garage",,,,,,,"roetz Rue de lAvenir L-3895 Foetz Feiz, Luxembourg",49.5283911,6.0107075
AD Dernier Sol L-2543 Luxembourg Létzebuerg,AD Dernier Sol L-2543 Luxembourg Létzebuerg,,,,,Tyres Tire mounting Tyres for vehicles Garage,,,,,,,AD Dernier Sol L-2543 Luxembourg Létzebuerg,49.5952813,6.1368815
37 Rue Romain Fandel L-4149 Esch-sur-Alzette Esch-Uelzecht,37 Rue Romain Fandel L-4149 Esch-sur-Alzette Esch-Uelzecht,,,,Monday to 0800,Road patrol and towing services Garage,,,,,,"Bienvenue chez Carpol, votre partenaire de confiance pour tous vos besoins en dépannage de véhicules et","37 Rue Romain Fandel L-4149 Esch-sur-Alzette Esch-Uelzecht, Luxembourg",49.4980094,5.9861572
L 35 Route de Luxembourg L-7372 Lorentzweiler Luerenzweiler,L 35 Route de Luxembourg L-7372 Lorentzweiler Luerenzweiler,,,,Pasiana Monday to 0830,Metals Boiler making - Metal Hydraulic Steel construction - Workshops Garage,,,,9.0,,,L 35 Route de Luxembourg L-7372 Lorentzweiler Luerenzweiler,49.6983494,6.1402969
siana 238 Route de Luxembourg L-3515 Dudelange Diddeleng,siana 238 Route de Luxembourg L-3515 Dudelange Diddeleng,,,,Ps Monday to 0800,Commercial vehicle Repair of vintage wheels for classic cars Garage,,,,,5.0,"Bienvenue chez CASIANA SARL, votre destination privilégiée pour lachat de véhicules doccasion et de jantes toutes marques doccasion  Dudelange  Notre société se spécialise exclusivement dans la vente de voitures doccasion et de jantes... CAR Market BY Garage Grasges Sarl",siana 238 Route de Luxembourg L-3515 Dudelange Diddeleng,49.4956959,6.0863162
semen 36 Route dEttelbruck L-9230 Diekirch Dikrech,semen 36 Route dEttelbruck L-9230 Diekirch Dikrech,,,,Vous cherchez un véhiculeNous vous accueillons du lundi au vendredi de 8h 4 12h et de 13h G I7hEt le samedi,Véhicule sale Car bodies Garage Sprint Cars and More Sarl,,,,,2.0,,"semen 36 Route dEttelbruck L-9230 Diekirch Dikrech, Luxembourg",,
spainrcans 36 A Rue Alexander Fleming L-3467 Dudelange Diddeleng,spainrcans 36 A Rue Alexander Fleming L-3467 Dudelange Diddeleng,,,,Monday to 0800,"Bienvenue chez Sprint Cars and More, situé G Dudelange Nous sommes une entreprise spécialisée dans la vente de véhicules doccasion récents et de qualité en provenance du Luxembourg.Depuis notre création en Véhicule sale Second hand car Garage",,,,,,,"spainrcans 36 A Rue Alexander Fleming L-3467 Dudelange Diddeleng, Luxembourg",49.49030345,6.09012534086369
12 Rue Jean Engling L-1466 Luxembourg Létzebuerg,12 Rue Jean Engling L-1466 Luxembourg Létzebuerg,,,,,Commercial vehicle Véhicule sale Motor vehicle equipment Garage,,,,,,,12 Rue Jean Engling L-1466 Luxembourg Létzebuerg,49.64020855,6.147734453619954
7 Rue Henri Tudor L-5366 Munsbach Minsbech,7 Rue Henri Tudor L-5366 Munsbach Minsbech,,,,,,,,,,,,"7 Rue Henri Tudor L-5366 Munsbach Minsbech, Luxembourg",49.638452,6.266394613233855
9 Rue du Chemin de Fer L-3766 Tétange Téiteng,9 Rue du Chemin de Fer L-3766 Tétange Téiteng,,,,,RENAULT ECHTERNACH - GARAGE SCHNEIDERS,,,,,,,"9 Rue du Chemin de Fer L-3766 Tétange Téiteng, Luxembourg",49.4738028,6.0346915
17 Route de Luxembourg L-6450 Echternach lechternach,17 Route de Luxembourg L-6450 Echternach lechternach,,,,,,FordStore Paul Wengler,,,,,,17 Route de Luxembourg L-6450 Echternach lechternach,49.8109405,6.419414412576197
24-40 Avenue des Alliés L-9012 Ettelbruck Ettelbréck,24-40 Avenue des Alliés L-9012 Ettelbruck Ettelbréck,,,,Monday to,aS Sponsoriser ma société,,,,,,,"24-40 Avenue des Alliés L-9012 Ettelbruck Ettelbréck, Luxembourg",49.8415348,6.098656
v ATMEC 17 Route dEchternach L-6212 Consdorf Konsdref,v ATMEC 17 Route dEchternach L-6212 Consdorf Konsdref,,,,Monday to 0800,Mechanical workshop Road patrol and towing services Mechanical hand tools Garage,,,,,,"mechanics and hydraulics. We work on agricultural machines, construction equipment, forestry equipment, and any other type of vehicle requiring... FC Clean Auto SARL","v ATMEC 17 Route dEchternach L-6212 Consdorf Konsdref, Luxembourg",,
FCCLEANAUTO 48 Rue Joseph Kieffer L-4176 Esch-sur-Alzette Esch-Uelzecht,FCCLEANAUTO 48 Rue Joseph Kieffer L-4176 Esch-sur-Alzette Esch-Uelzecht,,,,Monday to 0830,Vehicle wash Car cleaning Motor vehicle inspection service Rim cleaning Garage,,,,,4.0,"FC Clean Auto is your specialist in automobile cleaning and detailing. Refurbishment, vehicle protection or Whatever your needs and the...","FCCLEANAUTO 48 Rue Joseph Kieffer L-4176 Esch-sur-Alzette Esch-Uelzecht, Luxembourg",49.510348050000005,5.968516354712346
allZ cars 9 Rue du Commerce L-3895 Foetz Feiz,allZ cars 9 Rue du Commerce L-3895 Foetz Feiz,,,,Monday to 0700,"exclusively use MAFRAs professional car cleaning product line to restore that new car look and pure driving pleasure. Furthermore, all bodywork and... Automotive Accessory Cars - Accessories, equipment and furnishing Tyres Aluminium wheels CW Lo P Y",,,,2.0,5.0,,"allZ cars 9 Rue du Commerce L-3895 Foetz Feiz, Luxembourg",49.5250638,6.013526
ciassic wonnsuoe L-4984 Sanem Suessem,ciassic wonnsuoe L-4984 Sanem Suessem,,,,Monday to 1400,"Nous nous spécialisons dans - La réparation et restauration de voitures classiques- Entretien, maintenance",,,,,4.0,et évaluations- Conseils techniques- Transports nationaux et internationaux en remorque fermée- Commerce de voitures de collection- Recherche... Véhicule sale Oldtimer Luxury car Garage,"ciassic wonnsuoe L-4984 Sanem Suessem, Luxembourg",,
29 Rue Robert Krieps L-4702 Pétange Péiteng,29 Rue Robert Krieps L-4702 Pétange Péiteng,,,,Monday to 0900,"Le garage M-Line Cars, est spécialisé dans lachat et la vente de véhicules.Nous vous proposons un service",,,,,,"complet, comprenant Iimmatriculation de celui-ci en France ou au Luxembourg mais également la réalisation du contréle technique de votre... Solar Film Protect Sarl","29 Rue Robert Krieps L-4702 Pétange Péiteng, Luxembourg",49.55585965,5.86269085
8A Rue des Artisans L-3895 Foetz Feiz,8A Rue des Artisans L-3895 Foetz Feiz,,,,Monday to 0730,Veranda Sun awning Advertisement lettering services Window film Garage,,,,,5.0,Solar Film Protect située G Foetz est spécialisée dans la protection solaire pour tous les vitrages dhabitations Stoll Trucks I Location,"8A Rue des Artisans L-3895 Foetz Feiz, Luxembourg",49.5249156,6.0106581
2 Rue de la Poudrerie L-3364 Leudelange Leideleng,2 Rue de la Poudrerie L-3364 Leudelange Leideleng,,,,Pneus Monday to 0800,"Stoll Trucks  Location  Leudelange  Rollingen NOUVEAU  LOUEZ MAINTENANT AU DEPART DE NOTRE NOUVELLE AGENCE DE ROLLINGEN Spécialiste de la location courte, moyenne et longue durée de véhicules utilitaires et industriels au Luxembourg, Stoll... Vehicle rental Renting - Trucks and lorries Commercial vehicle Hire - Vehicle short-time A.M. Pneus Discount Sarl",,,,,4.0,,"2 Rue de la Poudrerie L-3364 Leudelange Leideleng, Luxembourg",49.5624811,6.073128013755591
Discount 37 Rue Romain Fandel L-4149 Esch-sur-Alzette Esch-Uelzecht,Discount 37 Rue Romain Fandel L-4149 Esch-sur-Alzette Esch-Uelzecht,,,,Monday to 0800 VAN Monday to 0730,"dépannage pneus ainsi que des pneus hiver et été.Prenez rendez-vous Tyres Winter Tyres Garage deffectuer Ienlévement et la destruction intégrale de véhicules devenus des paves ou ceux accidentés. Situé sur la commune de Florange, nous... Automotive Accessory Motor vehicle spare parts Auto recycling Cars - Breakers yards Petrymobil Garage Petry Sarl",,,,3.0,,,"Discount 37 Rue Romain Fandel L-4149 Esch-sur-Alzette Esch-Uelzecht, Luxembourg",49.5154629,5.9965459
oN 40 Rue Hiehl L-6131 Junglinster Jonglénster,oN 40 Rue Hiehl L-6131 Junglinster Jonglénster,,,,Monday to 0900,"Le Garage Petrymobil situé en plein coeur de la zone industrielle de Junglinster est dans un grand showroom moderne.Plongez dans Iunivers automobile avec le groupe Petrymobil, votre destination de confiance au Luxembourg.En tant que retailer officiel... Véhicule sale Automobile  Citroén Tyres Car bodies Garage",,,,,,,"oN 40 Rue Hiehl L-6131 Junglinster Jonglénster, Luxembourg",49.7040803,6.253442180819522
WIG 173 Rue de Belvaux L-4026 Esch-sur-Alzette Esch-Uelzecht,WIG 173 Rue de Belvaux L-4026 Esch-sur-Alzette Esch-Uelzecht,,,,ART ARS Monday to 0900,negotiates framework agreements for their non-strategic products and services. These purchases are too,,,,,,"Thanks to the volume effect, and the rationalization of the number of suppliers, the Widoo Procurement Group often neglected, due to lack... Business consulting Office supplies Cleaning products soaps, washing powders and detergents lagence automobile by ARTCARS","WIG 173 Rue de Belvaux L-4026 Esch-sur-Alzette Esch-Uelzecht, Luxembourg",49.5039396,5.9654881
evtelbruck 170B Rue de Bastogne L-9011 Ettelbruck Ettelbréck,evtelbruck 170B Rue de Bastogne L-9011 Ettelbruck Ettelbréck,,,,fe Monday to 0600,"LAgence Automobile by ARTCARS est un intermédiaire pour les particuliers qui souhaitent vendre et acheter un véhicule doccasion.Basé sur le méme principe quune agence immobiliére, IAgence Automobile by ARTCARS basée G Ettelbruck, propose ses... Véhicule sale Sale warehouse Garage",,,,,5.0,,"evtelbruck 170B Rue de Bastogne L-9011 Ettelbruck Ettelbréck, Luxembourg",49.8475326,6.0914739
WLCRBLUX... 3 Rue Fontebierg L-3381 Livange Léiweng,WLCRBLUX... 3 Rue Fontebierg L-3381 Livange Léiweng,,,,Monday to 0800,remorques et bennes amovibles. Nous sommes importateurs des produits CRAMARO et RAPIDBACHE.Nous vous proposons aussi toute une gamme de filets... Display Tarpaulin Automotive Accessory Pvc tarpaulin Garage,,"CRB LUX est une entreprise luxembourgeoise spécialisée dans le bachage des bennes, remorques, semi-",,7.0,,,"WLCRBLUX... 3 Rue Fontebierg L-3381 Livange Léiweng, Luxembourg",49.5313489,6.105121961068235
pegprect 6 Z.A.C. Haneboesch II L-4563 Niederkorn Nidderkuer,pegprect 6 Z.A.C. Haneboesch II L-4563 Niederkorn Nidderkuer,,,,Monday to 0630,equipment. Yannick Oliger and his team of five employees are on hand to welcome you and advise you alll year long. A major stakeholder in... Ask for a quote bh Website Consulting engineers Hydraulic Paints Compressor Garage,,,,,,,"pegprect 6 Z.A.C. Haneboesch II L-4563 Niederkorn Nidderkuer, Luxembourg",49.54545335,5.898327739688599
39 Rue Charlotte L-4719 Pétange Péiteng,39 Rue Charlotte L-4719 Pétange Péiteng,,,,Monday to 0800,"Bienvenue chez MB Cars, votre partenaire automobile de confiance pour lachat et la vente de véhicules neufs entiéres de passion et dengagement... Véhicule sale Car care Garage ag SV Lux Design",,,,,,,"39 Rue Charlotte L-4719 Pétange Péiteng, Luxembourg",49.5549839,5.8794893
yj 4 Route de Longwy L-4830 Rodange Rodange,yj 4 Route de Longwy L-4830 Rodange Rodange,,,,CH Monday to 0800,Creative art studios and graphic design studios Advertisement lettering services,,,Transfers - Self-adhesive Garage,,,"covering de véhicules, le PPF, lettrage, impression ou encore la création de vos enseignes.Besoin dune baéche publicitaire Nous avons les...","yj 4 Route de Longwy L-4830 Rodange Rodange, Luxembourg",49.5511046,5.8434572
26 Z.A.C. Klengbousbierg L-7795 Bissen Biissen,26 Z.A.C. Klengbousbierg L-7795 Bissen Biissen,,,,Monday to 0800,Tyres Tire mounting Motor vehicle inspection service Tyres for vehicles Garage,,,,,4.0,"JM Pneus Sarl est implanté a Bissen.Fort de notre expertise, nous vous apportons nos conseils sur une large gamme de pneus et jantes pour tous types de véhicules  voitures, SUV, agricoles, poids lourds, ...vous trouverez un grand choix de marques...","26 Z.A.C. Klengbousbierg L-7795 Bissen Biissen, Luxembourg",49.7885185,6.0865009
47 Rue de Hollerich L-1741 Luxembourg Létzebuerg,47 Rue de Hollerich L-1741 Luxembourg Létzebuerg,,,,Monday to,service.Pour vos changements de...,,,,,,Rodighiero Pneus vous accueille dans ces différents centres  Luxembourg et Lamadelaine et vous propose un Tyres Tyres for vehicles Garage AUTOPOLIS Vous souhaitez étre mis en avant,47 Rue de Hollerich L-1741 Luxembourg Létzebuerg,49.5986006,6.1253658
14 Rue du Brill L-3898 Foetz Feiz,14 Rue du Brill L-3898 Foetz Feiz,,,,@ Monday to 0730 Monday to 0830,Petroleum Services Exploitation SA,,Autocenter Goedert est le centre auto leader sur le marché luxembourgeois des prestations et produits,,,5.0,"répondre aux attentes dans les domaines de la... Mechanical workshop Automotive Accessory Tyres for vehicles Garage Scania est lun des principaux fournisseurs mondiaux de solutions de transport, notamment de camions et de Commercial vehicle Truck Coaches and busses Refrigerated truck Garage","14 Rue du Brill L-3898 Foetz Feiz, Luxembourg",49.5244332,6.0057453
v 4 Lotissement Vulcalux L-8399 Windhof Wandhaff,v 4 Lotissement Vulcalux L-8399 Windhof Wandhaff,,,,ecw Monday to 0800 Monday to 0800,Tyres Motor vehicle inspection service Tyres for vehicles Garage,,,,4.0,4.0,La société gére un stock important de pneus et daccessoires voitures.Pneus Goedert vend des pneus et accessoires auto.Passage au contréle technique pour clients particuliers.Nous proposons tous types de,"v 4 Lotissement Vulcalux L-8399 Windhof Wandhaff, Luxembourg",49.64826865,5.9602458039304125
oe 1 Zone Industrielle op Stackem L-9952 Drinklange Drénkelt,oe 1 Zone Industrielle op Stackem L-9952 Drinklange Drénkelt,,,,Monday to 0800,"Lux Autoland is your efficient mobility partner in Luxembourg. With a wide range of new cars, six-monthly and we help you to always stay... Véhicule sale Tyres Electric motorcar equipment Garage","annual cars as well as used cars from VW, Audi, Skoda, Seat and Mercedes and the accompanying service,",,,,4.0,,"oe 1 Zone Industrielle op Stackem L-9952 Drinklange Drénkelt, Luxembourg",,
femmes 459 Route de Wasserbillig L-6686 Mertert Mdertert,femmes 459 Route de Wasserbillig L-6686 Mertert Mdertert,,,,Monday to 0800,"La satisfaction du client est au centre de notre travail.En tant quatelier automobile indépendant, nous essayons datteindre cet objectif encore et encore grace Gd la compétence professionnelle, la fiabilité, la qualité et lintérét pour notre... Mechanical workshop Automotive Accessory Tyres for vehicles Garage Colmar-Berg, Luxembourg, strive to... Tyres Automotive Accessory Industrial research Garage",,,,1.0,3.0,,"femmes 459 Route de Wasserbillig L-6686 Mertert Mdertert, Luxembourg",49.7129205,6.4978785
31A Duarrefstrooss L-9944 Beiler Beeler,31A Duarrefstrooss L-9944 Beiler Beeler,,,,Temporary closure Open Monday 17 March to 0730,convenient home service and appointments in the municipality of Hollenfels.Our dedicated team provides a,,,,,4.0,full range of car cleaning and... Vehicle wash Car cleaning products Garage Stephany William Réparation  Restauration Tracteurs complet et personnalisé pour la prise en charge de votre tracteur. Je me rends directement G votre domicile pour évaluer les travaux nécessaires....,"31A Duarrefstrooss L-9944 Beiler Beeler, Luxembourg",50.1640766,6.0877346
33 Route de Luxembourg L-4972 Dippach Dippech,33 Route de Luxembourg L-4972 Dippach Dippech,,,,WREINERT Monday to 0800,et une équipe de professionnels... Véhicule sale Second hand car Oldtimer Garage,,,,,4.0,,33 Route de Luxembourg L-4972 Dippach Dippech,49.58832945,5.975353125263634
wosSvemmucn 6 RU@ du Chateau dEau L-3364 Leudelange Leideleng,wosSvemmucn 6 RU@ du Chateau dEau L-3364 Leudelange Leideleng,,,,Monday to 0900,"La société REINERT Sarl est spécialisée dans la distribution de fournitures industrielles dans les domaines de - lautomobile piéces auto, équipement de garages - lindustrie outillage, aspirateurs, rayonnages, produits Ask for a quote y Website Tool kits Paints Uniforms Garage Car Wash Goedert Bertrange",,,,,3.0,,"wosSvemmucn 6 RU@ du Chateau dEau L-3364 Leudelange Leideleng, Luxembourg",49.5649418,6.0788684494602085
10 Rue de IAvenir L-3895 Foetz Feiz,10 Rue de IAvenir L-3895 Foetz Feiz,,,,G TE C H Monday to 0800,Véhicule sale Second hand car Commercial vehicle Car care Garage,,,,,,,"10 Rue de IAvenir L-3895 Foetz Feiz, Luxembourg",49.5264043,6.0059417
slectricite générale. 1 Um Klaeppchen L-5720 Aspelt Uespelt,slectricite générale. 1 Um Klaeppchen L-5720 Aspelt Uespelt,,,,Monday to 0900,"systems.Based in Aspelt, our general electricity company offers its services to private individuals",,,,17.0,5.0,"professionals, as well for the... Ask for a quote  Website Electrician installer Electrical system Electricity - Supplies and accessories Apparatus for electrical installation Garage","slectricite générale. 1 Um Klaeppchen L-5720 Aspelt Uespelt, Luxembourg",,
94 Rue de Belvaux L-4025 Esch-sur-Alzette Esch-Uelzecht,94 Rue de Belvaux L-4025 Esch-sur-Alzette Esch-Uelzecht,,,,Monday to 0800,Découvrez la différence avec Solar Control  DesignFourniture et pose de films de protection solaire Réduction de la chaleur et des UV Amélioration de lefficacité énergétiqueSolar Control  Design Votre partenaire de confiance pour la... Ask for a quote  Website Veranda Sun awning Kitchen Store Garage,,,,5.0,4.0,,"94 Rue de Belvaux L-4025 Esch-sur-Alzette Esch-Uelzecht, Luxembourg",49.50251075,5.97254178421916
76 Route de Luxembourg L-4876 Lamadelaine Rolleng,76 Route de Luxembourg L-4876 Lamadelaine Rolleng,,,,Monday to 0800,Tyres Tools and machines - Air-operated Garage,,,,,4.0,,76 Route de Luxembourg L-4876 Lamadelaine Rolleng,49.5530222,5.859613399900307
21 Létzebuergerstrooss L-5752 Frisange Fréiseng,21 Létzebuergerstrooss L-5752 Frisange Fréiseng,,,,Monday to 0800,Pneus Center vous accueille a Frisange. Nous vous proposons un des plus grands choix de pneumatiques hiver et té de la région. Nos prix exceptionnels ont fait depuis longtemps notre renommeée. Nous... Tyres Tyres for vehicles Winter Tyres Garage Car Wash Goedert Belle Etoile,,,,,2.0,,"21 Létzebuergerstrooss L-5752 Frisange Fréiseng, Luxembourg",49.518727600000005,6.186897131320814
L-8050 Bertrange Bartreng,L-8050 Bertrange Bartreng,,,,Monday to,wagon repair and maintenance...,,,,,,"Quel que soit le programme de lavage choisi, un opérateur vous accueille dés Ientrée du tunnel de lavage et prépare votre véhicule, en le prélavant manuellement, en pulvérisant du produit a jantes sur les quatre roues et du produit de prélavage sur... Vehicle wash Automotive Accessory Tyres for industry Garage CFL technics, formerly known as Ateliers de Pétange, is a subsidiary of CFL cargo. With extensive experience Railways Rail vehicle equipment and accessories Garage AUTOPOLIS Vous souhaitez étre mis en avant","L-8050 Bertrange Bartreng, Luxembourg",49.6106029,6.0501598
200 Rue de Brill L-3844 Schifflange Schéffleng,200 Rue de Brill L-3844 Schifflange Schéffleng,,,,,Garage Automotive Accessory Car bodies Garage Marco Sinner Sarl,,,,,,,"200 Rue de Brill L-3844 Schifflange Schéffleng, Luxembourg",49.5131994,6.0086329762033195
140 Rue Principale L-8611 Platen Platen,140 Rue Principale L-8611 Platen Platen,,,,,,,,,,4.0,,"140 Rue Principale L-8611 Platen Platen, Luxembourg",49.7902399,5.9370966
15 Rue Glesener L-1631 Luxembourg Létzebuerg,15 Rue Glesener L-1631 Luxembourg Létzebuerg,,,,", Monday to 0800","Discover HelloTAXI, your professional transport company dedicated to simplifying your personal and your meetings and professional events... Order online by Website Road passenger transport Taxi Transport Airport shuttle Garage",,,"professional travel.We offer you a reliable and convenient service, with airport transfers, transportation for",,4.0,,15 Rue Glesener L-1631 Luxembourg Létzebuerg,49.6020647,6.1308998
35 Rue des Bruyéres L-1274 Howald Houwald,35 Rue des Bruyéres L-1274 Howald Houwald,,,,EP Monday to 0730,"Vehicle wash Motor vehicle inspection service Cars - Accessories, equipment and furnishing",,,,,4.0,"Specializing in top-of-the-range automotive treatments, the CAR PROTECT CENTER team offers you FICTECH and XPEL body protection, as well as permanent interior treatments.In addition to hand-washing, we can refurbish your interiors, renovate or... Garage Schmit  Fils Sarl","35 Rue des Bruyéres L-1274 Howald Houwald, Luxembourg",49.5771477,6.1368054
scumgasSsaa 93 Route de Tréves L-6793 Grevenmacher Gréiwemaacher,scumgasSsaa 93 Route de Tréves L-6793 Grevenmacher Gréiwemaacher,,,,,nouvelles voitures et occasions...,"mécanique et carrosserie, peinture au four.Service pare-brise et climatisation.Piéces de rechange Ford vente",,,,4.0,,"scumgasSsaa 93 Route de Tréves L-6793 Grevenmacher Gréiwemaacher, Luxembourg",,
42 Robert Schuman-Strooss L-5751 Frisange Fréiseng,42 Robert Schuman-Strooss L-5751 Frisange Fréiseng,,,,Monday to 0800,Service stations Automotive Accessory Tyres for vehicles Garage,,,,,4.0,"fidélité interessante. Demandez-la  Vous trouvez chez-nous De lessence moins cher et un shop avec les produits comme le tabac, les... Truck Trading Luxembourg TTLux","42 Robert Schuman-Strooss L-5751 Frisange Fréiseng, Luxembourg",49.5076975,6.1919538
Il Rue Edmond Reuter L-5326 Contern Conter,Il Rue Edmond Reuter L-5326 Contern Conter,yr 3.92 1017 Reviews,,,Monday to 0800 Monday to 0730,"independent auto center specializing in tire services. Whether youre looking for new or used tires, our team is",,,,,4.0,TRUCK TRADING Luxembourg is your DAF Heavy Duty dealership located in Contern.Our company offers you a Trading Luxembourgs activity is based on... Commercial vehicle Truck Véhicule sale Renting - Trucks and lorries Garage here to meet your needs with... Tyres Motor vehicle equipment Garage,"Il Rue Edmond Reuter L-5326 Contern Conter, Luxembourg",49.5969195,6.2191185
140 Route dEsch L-1471 Luxembourg Létzebuerg,140 Route dEsch L-1471 Luxembourg Létzebuerg,,,,Monday to 0800,type de véhicule. Nous proposons une large palette de services et produits pour répondre aux attentes dans,,Autocenter Goedert est le leader sur le marché luxembourgeois des services et produits dentretien pour tout,,,3.0,"les domaines de la sécurité, la... Mechanical workshop Automotive Accessory Cars - Accessories, equipment and furnishing",140 Route dEsch L-1471 Luxembourg Létzebuerg,49.5979406,6.1173909
107 Route de Luxembourg L-7241 Bereldange Bareldeng,107 Route de Luxembourg L-7241 Bereldange Bareldeng,,,,Cars Monday to 0830,comfort and vehicle maintenance...,,,,,,Mechanical workshop Automotive Accessory Tyres for vehicles Garage,107 Route de Luxembourg L-7241 Bereldange Bareldeng,49.6520137,6.1288426
Benelux. 60 Rue de Koerich L-8437 Steinfort Stengefort,Benelux. 60 Rue de Koerich L-8437 Steinfort Stengefort,,,,T2 ELO Monday to 0700,"remorques, dédié G fournir des services de haute qualité pour répondre aux besoins des transporteurs a",,,,,5.0,"Notre engagement votre satisfactionSpécialisée dans achat-vente de véhicules neufs et doccasion récents a faible kilométrage, la société Cars Benelux est située a Steinfort au Grand-Duché de Luxembourg.La société est constituée dune équipe de... Véhicule sale Second hand car New car Garage Présentation de la société TRELOActivité  TRELO est un centre de réparation de poids lourds et de semi- travers IEurope.Localisation  Lun des... Véhicule sale Heavyweight transport Truck Garage","Benelux. 60 Rue de Koerich L-8437 Steinfort Stengefort, Luxembourg",49.66105125,5.924507645458082
MMS 12 Rue du Village L-6170 Godbrange Guedber,MMS 12 Rue du Village L-6170 Godbrange Guedber,,,,,Road patrol and towing services Motor vehicle breakdown repair services Garage,,,,,4.0,"customers.At MMS Dépannage, we...","MMS 12 Rue du Village L-6170 Godbrange Guedber, Luxembourg",49.734696150000005,6.23205036076175
scedert Bere lEurope L-5531 Remich Réimech,scedert Bere lEurope L-5531 Remich Réimech,,,,Sear proner Monday to 0800,"Service stations Automotive Accessory Cars - Accessories, equipment and furnishing Garage",,,,3.0,4.0,"Station Goerdert Remich vous propose du carburant de qualité et une carte fidélité interessante. Demandez- la Vous trouvez chez-nousDe lessence moins cher et un shop avec les produits comme le tabac, les chocolats, les confiseries, le café...","scedert Bere lEurope L-5531 Remich Réimech, Luxembourg",,
12 A Allée John W. Léonard L-7526 Mersch Miersch,12 A Allée John W. Léonard L-7526 Mersch Miersch,,,,Monday to 0800,"Car-project le spécialiste du quad, motos et scooters a Mersch, vous accueille dans son showroom Bikes, motor-assisted bicycles, motobikes and trikes Quads Automotive Accessory Motorcycles Car Wash Goedert Hollerich",,,,,4.0,,"12 A Allée John W. Léonard L-7526 Mersch Miersch, Luxembourg",49.75633585,6.102899341338465
muibieedll 140A Route dEsch L-1471 Luxembourg Létzebuerg,muibieedll 140A Route dEsch L-1471 Luxembourg Létzebuerg,,,,Monday to 0800,"Quel que soit le programme de lavage choisi, un opérateur vous accueille dés lentrée du tunnel de lavage et et du produit de prélavage sur... Vehicle wash Tyres Cars - Accessories, equipment and furnishing Garage",,,,,3.0,,muibieedll 140A Route dEsch L-1471 Luxembourg Létzebuerg,,
GB Samy 44 Route de la Sdre L-9390 Reisdorf Reisduerf,GB Samy 44 Route de la Sdre L-9390 Reisdorf Reisduerf,,,,Zoey Monday to 0900 Monday to 0800,We do all kind of services on US and Japanese brands. We also do frame-off restaurations and are,,,,3.0,3.0,"specialised in Sodablasting. Importing the right car for you is our mission. new, used, vintage or a collection car. We have our specialists there to... Véhicule sale Second hand car Automobile  Dodge Garage Bienvenue chez KEV CAR @ Guénange, située dans le département de Ia Moselle, en région Grand Est. Depuis exceptionnelle, en mettant laccent sur la... Véhicule sale Car cleaning products Garage Car Wash Goedert Bereldange Gj Car Wash .","GB Samy 44 Route de la Sdre L-9390 Reisdorf Reisduerf, Luxembourg",49.87026775,6.271249300000001
canavenue. 4 Rue Nicolas Brosius L-3372 Leudelange Leideleng,canavenue. 4 Rue Nicolas Brosius L-3372 Leudelange Leideleng,,,,Monday to 0800,Garage Motor vehicle inspection service Car bodies,,,Garage Cardoni Sarl,,,CAR Avenue propose dans lensemble de son réseau Ia garantie Fiable ou remboursé. Dans le cadre dun achat ou bien de facgon isolée notre concession peut également vous faire une proposition de reprise auto.,"canavenue. 4 Rue Nicolas Brosius L-3372 Leudelange Leideleng, Luxembourg",49.5697033,6.0776085
CARDONI 914 A Route de Luxembourg L-3515 Dudelange Diddeleng,CARDONI 914 A Route de Luxembourg L-3515 Dudelange Diddeleng,,,,wSewtecansce Monday to 0830,services- Show room- Workshop- Technical service- Mechanics- Body shop- Used vehiclesFor further,,,,,,"information, please contact us. You can also...",CARDONI 914 A Route de Luxembourg L-3515 Dudelange Diddeleng,49.4893367,6.082426
MIGAUTO 14 Route de la Sdre L-9390 Reisdorf Reisduerf,MIGAUTO 14 Route de la Sdre L-9390 Reisdorf Reisduerf,,,,monde automobile.Notre garage vous accueille du lundi au samedi pour différents services comme Monday to 0830 accueillons du lundi au vendredi pour lentretien et la reparation de votre véhicule.Nos prestations - Révision @ Monday to 0800,Garage Motor vehicle inspection service Winter Tyres,,,,1.0,,"Garage Véhicule sale Bodywork - Motor vehicle la mécanique automobile, le passage... automobile- Vente et montage de pneus-... Garage Tyres Engines - Overhauling Citroén CAR Avenue Leudelange","MIGAUTO 14 Route de la Sdre L-9390 Reisdorf Reisduerf, Luxembourg",49.86841715,6.265358655376764
crmmoen 4 Rue Nicolas Brosius L-3372 Leudelange Leideleng,crmmoen 4 Rue Nicolas Brosius L-3372 Leudelange Leideleng,,,,fou @P Monday to 0800,"CAR Avenue Luxembourg est un groupe de concessions de plusieurs marques dont Citroén, proposant Ientiéreté de la gamme. Que ce soit pour un véhicule particulier ou utilitaire, dun Garage Automotive Accessory Car bodies",Nissan Toyota Alzingen,,,,,,"crmmoen 4 Rue Nicolas Brosius L-3372 Leudelange Leideleng, Luxembourg",49.5697033,6.0776085
CAR AVENUE 2935 Route de Thionville L-5887 Alzingen Alzeng,CAR AVENUE 2935 Route de Thionville L-5887 Alzingen Alzeng,,,,Monday to 0730,électriques. Nos Business Centers nous... Garage Automotive Accessory Car bodies,Toyota CAR Avenue Luxembourg,,,,,,"CAR AVENUE 2935 Route de Thionville L-5887 Alzingen Alzeng, Luxembourg",49.5695372,6.160734
6 Rue des Mérovingiens L-8070 Bertrange Bartreng,6 Rue des Mérovingiens L-8070 Bertrange Bartreng,,,,cy Monday to 0730,Garage Motor vehicle inspection service Car bodies,Peugeot CAR Avenue Leudelange,,,,,une garantie. Avec lexpertise...,"6 Rue des Mérovingiens L-8070 Bertrange Bartreng, Luxembourg",49.6099919,6.0774344
4 Rue Nicolas Brosius L-3372 Leudelange Leideleng,4 Rue Nicolas Brosius L-3372 Leudelange Leideleng,,,,@ Monday to 0800,Garage Motor vehicle inspection service Car bodies,Peugeot Citroen Foetz,,,,,"Venez découvrir notre showroom présentation de toute la gamme, véhicules de tourisme et utilitaires. Que financement, etc.. Nous disposons...","4 Rue Nicolas Brosius L-3372 Leudelange Leideleng, Luxembourg",49.566737950000004,6.082027795780332
73 Route de Luxembourg L-3515 Dudelange Diddeleng,73 Route de Luxembourg L-3515 Dudelange Diddeleng,,,,CED Monday to 0800,Luxembourg.Nous disposons de - Voitures neuves et occasions.- Parc de véhicules doccasion toutes marques.- Atelier de carrosserie et mécanique.Le Garage... Garage Tyres Car bodies,Garage Roby Cruciani Audi,,,,,,73 Route de Luxembourg L-3515 Dudelange Diddeleng,49.4885383,6.08155591145405
212 Route de Luxembourg L-3515 Dudelange Diddeleng,212 Route de Luxembourg L-3515 Dudelange Diddeleng,,,,"_.,- Monday to 0800",de - Voitures neuves et occasions. - Parc de véhicules doccasion toutes marques. - Atelier de... Garage Véhicule sale Car bodies,"Concessionnaire Audi, le Garage Roby Cruciani Audi est situé G Dudelange au Luxembourg. Nous disposons",,,,,,212 Route de Luxembourg L-3515 Dudelange Diddeleng,49.493929,6.085722132039288
oansce 18 Op de Geieren L-4970 Sprinkange Sprénkeng,oansce 18 Op de Geieren L-4970 Sprinkange Sprénkeng,,,,Garage Monday to 0800,"véhiculeChez Open Cars, nous mettons notre expertise au service de votre voiture pour garantir des",,,,,,"Open Cars - Votre garage de confiance pour Ientretien, loptimisation et la personnalisation de votre prestations de qualité, adaptées a tous vos... Garage Tyres Wheel-balancing  front wheel alignment Garage La Macchina Sarl","oansce 18 Op de Geieren L-4970 Sprinkange Sprénkeng, Luxembourg",49.5853957,5.9724856
68 Rue de Cessange L-1320 Luxembourg Létzebuerg,68 Rue de Cessange L-1320 Luxembourg Létzebuerg,,,,"Quindy,. Monday to 0700",de  - SOS Dépannage Vous pouvez choisir notre garage pour la qualité de notre service Prennez...,,,,9.0,,Garage La Macchina est a votre disposition pour les reparations toutes marques. Nous sommes partenaires Garage Tyres Auto mechanic,68 Rue de Cessange L-1320 Luxembourg Létzebuerg,49.595475750000006,6.110620549999993
13 Rue Charles Kieffer L-8389 Grass Grass,13 Rue Charles Kieffer L-8389 Grass Grass,,,,AIRL Monday to 0800,Garage Garages - Equipment and accessories Industrial maintenance,,,,,,Auto Red-Line Pneus Sarl,"13 Rue Charles Kieffer L-8389 Grass Grass, Luxembourg",49.6354827,5.8911292
307 Rue Woiwer L-4687 Differdange Déifferdang,307 Rue Woiwer L-4687 Differdange Déifferdang,,,,,"mécanique automobile, nous vous proposons différents services tels que- Montage, équilibrage,",,,,3.0,,Votre garage de confiance parallélisme- Réparation rapide- Carrosserie-... Hedin Automotive Luxembourg SA,"307 Rue Woiwer L-4687 Differdange Déifferdang, Luxembourg",,
164 Route dEsch L-1471 Luxembourg Létzebuerg,164 Route dEsch L-1471 Luxembourg Létzebuerg,,,,Monday to 0800,Garage Véhicule sale Windshield repair,,,,,2.0,"Bienvenue chez Hedin Automotive, votre partenaire de confiance pour une mobilité sans souci. Que vous recherchiez une voiture neuve ou doccasion, notre engagement est de vous offrir exactement ce que vous cherchez. En tant que pilier de lindustrie... Garage Vehicle rental Engines - Overhauling",164 Route dEsch L-1471 Luxembourg Létzebuerg,49.59662335,6.116916347368046
200 Boulevard du Général Patton L-2316 Luxembourg Létzebuerg,200 Boulevard du Général Patton L-2316 Luxembourg Létzebuerg,,,,Monday to 0830,"Garage Norbert Weimerskirch, succ. Guy Weimerskirch e tel que mécanique... Garage Tyres Automobile - review",Nissan Toyota Diekirch,,,,,,200 Boulevard du Général Patton L-2316 Luxembourg Létzebuerg,49.6085847,6.1430871
6 Rue Fridhaff L-9379 Diekirch Dikrech,6 Rue Fridhaff L-9379 Diekirch Dikrech,,,,Monday to,Garage Automotive Accessory Car bodies Vous souhaitez étre mis en avant,,,,,,,"6 Rue Fridhaff L-9379 Diekirch Dikrech, Luxembourg",49.878102350000006,6.136265400000003
124 Route de Luxembourg L-9125 Schieren Schieren,124 Route de Luxembourg L-9125 Schieren Schieren,,,,Monday to 0830,Votre spécialiste automobile pour le Nord du Luxembourg. Bénéficiez des conseils et des services de notre,,,,,,"équipe de professionnels pour tous vos besoins en carrosserie, mécanique, préparation... Garage Véhicule sale Second hand car Garage Alex Greischer Sarl",124 Route de Luxembourg L-9125 Schieren Schieren,49.8260976,6.095562848961542
8 Op der Strooss L-7650 Heffingen Hiefenech,8 Op der Strooss L-7650 Heffingen Hiefenech,,,,WN Monday to 0730,un apercu de nos principaux services...,,,,1.0,,"Notre atelier est spécialisé dans la restauration de voitures de collection, offrant une gamme complete de Garage Garages - Equipment and accessories","8 Op der Strooss L-7650 Heffingen Hiefenech, Luxembourg",49.7716718,6.2393142
11 Salzbaach L-9559 Wiltz Wooltz,11 Salzbaach L-9559 Wiltz Wooltz,,,,Monday to 0900 Monday to 0800 Monday to 0800,"We are the specialists for vehicles of all kinds. From bodywork, painting, repairs, and advertising to service",,,,6.0,5.0,Le Garage Strotz est un agent du réseau CITROEN au Grand-Duché du Luxembourg vous proposant toute workyour vehicle is in good hands with us throughout its lifetime.We offer youBodywork for cars and Garage Véhicule sale Accessory for auto body,"11 Salzbaach L-9559 Wiltz Wooltz, Luxembourg",49.9611945,5.906422
190 Rue de Belvaux L-4026 Esch-sur-Alzette Esch-Uelzecht,190 Rue de Belvaux L-4026 Esch-sur-Alzette Esch-Uelzecht,,,,Monday to 0630,Garage Motor vehicle inspection service Car bodies,,,,,,"and in our show rooms we offer you a range of new, used and commercial vehicles sedans, wagons, coupés,","190 Rue de Belvaux L-4026 Esch-sur-Alzette Esch-Uelzecht, Luxembourg",49.50468415,5.9670349
3 Rue Nicolas Brosius L-3372 Leudelange Leideleng,3 Rue Nicolas Brosius L-3372 Leudelange Leideleng,,,,Monday to 0800,Garage Coaches and busses Vans - Sales and maintenance,,,,3.0,,"and in our show rooms we offer you a range of new, used and commercial vehicles sedans, wagons, coupés,","3 Rue Nicolas Brosius L-3372 Leudelange Leideleng, Luxembourg",49.5697033,6.0776085
17 Rue de lindustrie L-9250 Diekirch Dikrech,17 Rue de lindustrie L-9250 Diekirch Dikrech,,,,VAN Monday to 0745,Garage Motor vehicle inspection service Vans - Sales and maintenance,,,,,,"and in our show rooms we offer you a range of new, used and commercial vehicles sedans, wagons, coupés, Garage J. Leyder Sarl","17 Rue de lindustrie L-9250 Diekirch Dikrech, Luxembourg",49.684512850000004,5.812621412703882
4 Rue dell L-8509 Redange-sur-Attert Réiden Atert,4 Rue dell L-8509 Redange-sur-Attert Réiden Atert,,,,ME48 Monday to 0800,Garage Motor vehicle inspection service Car bodies,,,,,,"Le Garage J.Leyder est un agent du réseau CITROEN au Grand-Duché du Luxembourg vous proposant toute Toutes nos occasions sont... en .., MF-Car Sarl","4 Rue dell L-8509 Redange-sur-Attert Réiden Atert, Luxembourg",,
10 Route de Winseler L-9577 Wiltz Wooltz,10 Route de Winseler L-9577 Wiltz Wooltz,,,,oanmwene Monday to 0800,Garage Motor vehicle inspection service Car bodies,,,,,,limmiatriculation de votre véhicule. Nous nous chargeons des démarches... AZ Partners Luxembourg Sarl,"10 Route de Winseler L-9577 Wiltz Wooltz, Luxembourg",49.964272699999995,5.921461744799992
BE BI. 4 Rue Luss Arendt L-8389 Grass Grass,BE BI. 4 Rue Luss Arendt L-8389 Grass Grass,,,,@Qveas Monday to 0800,leger.Venez découvrir la force du Smart RepairRéparer au lieu de remplacer la piéceNos services - Coups et,,,,,,"AZ Partners fait de la réparation sur toutes les marques que se soit sur votre voiture, moto ou utilitaire Garage Bodywork Automobile experts Car bodies","BE BI. 4 Rue Luss Arendt L-8389 Grass Grass, Luxembourg",49.6341777,5.8917039
cmnincesaene  RUS des Mérovingiens L-8070 Bertrange Bartreng,cmnincesaene  RUS des Mérovingiens L-8070 Bertrange Bartreng,,,,Monday to 0800,Garage Motor vehicle inspection service Car bodies,,,,,4.0,"linnovation de la gamme.Venez découvrir notre showroom et prenez place derriére le volant de nos hybrides...sans prises électrique, sans diesel et sans...","cmnincesaene RUS des Mérovingiens L-8070 Bertrange Bartreng, Luxembourg",49.6105648,6.0767653
Winandy Fréres_ 1 Rue Kalchesbruck L-1852 Luxembourg Létzebuerg,Winandy Fréres_ 1 Rue Kalchesbruck L-1852 Luxembourg Létzebuerg,,,,Couneats Monday to 0800,Garage Véhicule sale Second hand car,,,,,,,Winandy Fréres_ 1 Rue Kalchesbruck L-1852 Luxembourg Létzebuerg,49.6227901,6.1859728126550095
MLCAR 1A Rue Principale L-8540 Ospern Osper,MLCAR 1A Rue Principale L-8540 Ospern Osper,,,,Monday to 0900 Ki Monday to 0700,"ses réparations de véhicules toutes marques, location de camionnette et vente de voitures doccasion, le garage Philcars, a recemment repris la... Garage Automotive Accessory Cars - Accessories, equipment and furnishing Carrosserie Pinto et Frére A Athus La Carrosserie Pinto  Frére, située au coeur du Péle Européen de Développement aux frontiéres de la Garage Bodywork - Motor vehicle Automotive Accessory Car bodies",,,,,,,"MLCAR 1A Rue Principale L-8540 Ospern Osper, Luxembourg",49.77900295,5.912938049999999
5 Rue Henri Tudor L-5366 Munsbach Minsbech,5 Rue Henri Tudor L-5366 Munsbach Minsbech,,,,Monday to 0700,available in our dealerships...,Garage Automotive Accessory Automobile  Ford,,,3.0,,,"5 Rue Henri Tudor L-5366 Munsbach Minsbech, Luxembourg",49.638057950000004,6.266510257051221
3 Rue de IAvenir L-3895 Foetz Feiz,3 Rue de IAvenir L-3895 Foetz Feiz,,,,Monday to,"variety of professionals, brands, and services.",Garage Automotive Accessory Automobile  Ford,,,7.0,,available in our dealerships... It is now much easier to find a garage in Luxembourg. AUTOPOLIS Vous souhaitez étre mis en avant,"3 Rue de IAvenir L-3895 Foetz Feiz, Luxembourg",49.5237618,6.010673889382408
170 Rue de Bastogne L-9011 Ettelbruck Ettelbréck,170 Rue de Bastogne L-9011 Ettelbruck Ettelbréck,,,,Monday to 0800,lautomobile et a ouvert son propre garage pour faire de la reparation mécanique.Nous vous proposons Garage Véhicule sale Accessory for auto body Garage Carrosserie Grondhaff Sarl,,,,,,,"170 Rue de Bastogne L-9011 Ettelbruck Ettelbréck, Luxembourg",49.84948315,6.081211337361386
cod 128 Route de Thionville L-2610 Luxembourg Létzebuerg,cod 128 Route de Thionville L-2610 Luxembourg Létzebuerg,,,,Monday to 0730,"Louyet Carrosserie Luxembourg est votre carrosserie pour toutes marques, Land-Rover, Lotus, Jaguar et Aston Martin.Rendez-vous chez Carrosserie Atelier NI. Garage Bodywork - Motor vehicle Automotive Accessory Car bodies",,,,,,,cod 128 Route de Thionville L-2610 Luxembourg Létzebuerg,49.59246655,6.139368638968293
96 Route de Luxembourg L-6450 Echternach lechternach,96 Route de Luxembourg L-6450 Echternach lechternach,,,,Monday to 0730,Carrosserie Michels  Thielen SA,voitures neuves Volkswagen et Skoda et occasions. Atelier de réparation carrosserie toutes marques avec,,,,,,96 Route de Luxembourg L-6450 Echternach lechternach,49.8086094,6.411215485237172
20 Z.A.R.E. llot Ouest L-4384 Ehlerange Eilereng,20 Z.A.R.E. llot Ouest L-4384 Ehlerange Eilereng,,,,Monday to 0700 Monday to 0830,Garage Motor vehicle inspection service Car bodies,,,,,,"Garage Automotive Accessory Car bodies peinture pour voitures et camionnettes, débosselage sans peinture, remplacement et réparation de... Garage Bodywork Tyres Car bodies UTOPOLIS BETZ Bertrange Bartreng Situé G Bertrange, notre Flagship store est unique au Luxembourg en proposant un large choix de véhicules Corvette, Fiat, Jeep, Hyundai...","20 Z.A.R.E. llot Ouest L-4384 Ehlerange Eilereng, Luxembourg",49.5145709,5.9668269
7 Rue Christophe Plantin L-2339 Luxembourg Létzebuerg,7 Rue Christophe Plantin L-2339 Luxembourg Létzebuerg,,,,1900Saturday ... Monday to 0800,Bilia is the only MINI dealer in Luxembourg. Visit us or our website to discover all the information about our new @ Order online b Website Garage Tyres Car bodies,,,,3.0,,,7 Rue Christophe Plantin L-2339 Luxembourg Létzebuerg,49.588745349999996,6.121000671015699
124 Route du Vin L-5440 Remerschen Remerschen,124 Route du Vin L-5440 Remerschen Remerschen,,,,SeAT Monday to 0700,"Ss Petrymobil Garage Petry Sarl Plongez dans Iunivers automobile avec le groupe Petrymobil, votre destination de confiance au sommes fiers doffrir une gamme complete de... Garage Véhicule sale Car bodies Garage Marc Winandy Sarl","Luxembourg.En tant que retailer officiel des marques renommées telles que Peugeot, Citroén, DS et Opel, nous",,,,,,"124 Route du Vin L-5440 Remerschen Remerschen, Luxembourg",49.49142285,6.352544450218978
yw 326 Route de Mondorf L-3260 Bettembourg Beetebuerg,yw 326 Route de Mondorf L-3260 Bettembourg Beetebuerg,,,,Monday to 0930,Garage Motor vehicle inspection service Tyres for vehicles,,,,,4.0,"location de véhicule mécanique, carrosserie....","yw 326 Route de Mondorf L-3260 Bettembourg Beetebuerg, Luxembourg",49.505828300000005,6.125709472942017
55 Rue Jean-Pierre Bausch L-4023 Esch-sur-Alzette Esch-Uelzecht,55 Rue Jean-Pierre Bausch L-4023 Esch-sur-Alzette Esch-Uelzecht,,,,Monday to 0800,"marquesVoici ce que nous vous proposons Fiabilité inégalée  Chaque véhicule est minutieusement inspecté avant détre mis en vente, garantissant ainsi... Garage Automotive Accessory Cars - Accessories, equipment and furnishing",,,,,4.0,,"55 Rue Jean-Pierre Bausch L-4023 Esch-sur-Alzette Esch-Uelzecht, Luxembourg",49.4864309,5.9778834
SP... L-4563 Niederkorn Nidderkuer,SP... L-4563 Niederkorn Nidderkuer,,,,Monday to 0800,"OF ere Fores @ Bienvenue au garage V.I.P station Nous exécutons des travaux sur toutes marques de voitures.Notre specialiste est la voitures ancienne Nous exécutons aussi des travaux de mécanique vidanges, pneus, freins, échappemernts...Nous tenons a vous Offrir... Beim Charel - Den Dokter fir Aren Auto Sarl",,,,,4.0,,"SP... L-4563 Niederkorn Nidderkuer, Luxembourg",49.5366182,5.8899436
